[
  {
    "id": 1,
    "branch_id": "MON02",
    "latitude": 12.112367,
    "longitude": 106.886155,
    "province": "Mondul Kiri",
    "province_kh": "មណ្ឌលគិរី",
    "district": "Kaev Seima",
    "district_kh": "កែវសីមា",
    "commune": "",
    "commune_kh": "",
    "village": "",
    "village_kh": "",
    "market": "Kaev Seima Market",
    "market_kh": "ផ្សារកែវសីមា",
    "google_maps_url": "https://www.google.com/maps?q=12.112367,106.886155"
  },
  {
    "id": 2,
    "branch_id": "MON",
    "latitude": 13.079141,
    "longitude": 107.0402,
    "province": "Mondul Kiri",
    "province_kh": "មណ្ឌលគិរី",
    "district": "Kaoh Nheaek",
    "district_kh": "កោះញែក",
    "commune": "",
    "commune_kh": "",
    "village": "",
    "village_kh": "",
    "market": "Kaoh Nheaek Market",
    "market_kh": "ផ្សារកោះញែក",
    "google_maps_url": "https://www.google.com/maps?q=13.079141,107.0402"
  },
  {
    "id": 3,
    "branch_id": "KAM03",
    "latitude": 10.773671,
    "longitude": 104.661876,
    "province": "Kampot",
    "province_kh": "កំពត",
    "district": "Angkor Chey",
    "district_kh": "អង្គរជ័យ",
    "commune": "Ankor Chey",
    "commune_kh": "អង្គរជ័យ",
    "village": "Angkor Chey Leu",
    "village_kh": "អង្គរជ័យលើ",
    "market": "Tani Market",
    "market_kh": "ផ្សារតានី",
    "google_maps_url": "https://www.google.com/maps?q=10.773671,104.661876"
  },
  {
    "id": 4,
    "branch_id": "KAM01",
    "latitude": 10.61534,
    "longitude": 104.180061,
    "province": "Kampot",
    "province_kh": "កំពត",
    "district": "Kampot Municipality",
    "district_kh": "ក្រុងកំពត",
    "commune": "",
    "commune_kh": "",
    "village": "",
    "village_kh": "",
    "market": "Samaki Market",
    "market_kh": "ផ្សារសាមគ្គី",
    "google_maps_url": "https://www.google.com/maps?q=10.61534,104.180061"
  },
  {
    "id": 5,
    "branch_id": "KRA04",
    "latitude": 12.774901,
    "longitude": 105.964668,
    "province": "Kratie",
    "province_kh": "ក្រចេះ",
    "district": "Sambour",
    "district_kh": "សំបូរ",
    "commune": "Sambour",
    "commune_kh": "សំបូរ",
    "village": "Sambour",
    "village_kh": "សំបូរ",
    "market": "Sambour Market",
    "market_kh": "ផ្សារសំបូរ",
    "google_maps_url": "https://www.google.com/maps?q=12.774901,105.964668"
  },
  {
    "id": 6,
    "branch_id": "KRA01",
    "latitude": 12.484383,
    "longitude": 106.017797,
    "province": "Kratie",
    "province_kh": "ក្រចេះ",
    "district": "Kracheh Municipality",
    "district_kh": "ក្រុងក្រចេះ",
    "commune": "Kracheh Sangkat",
    "commune_kh": "សង្កាត់ក្រចេះ",
    "village": "Kracheh",
    "village_kh": "ក្រចេះ",
    "market": "Kratie Market",
    "market_kh": "ផ្សារក្រចេះ",
    "google_maps_url": "https://www.google.com/maps?q=12.484383,106.017797"
  },
  {
    "id": 7,
    "branch_id": "MON02",
    "latitude": 12.13887,
    "longitude": 106.721222,
    "province": "Kratie",
    "province_kh": "ក្រចេះ",
    "district": "Snuol",
    "district_kh": "ស្នួល",
    "commune": "Snuol",
    "commune_kh": "ស្នួល",
    "village": "Snuol Lech",
    "village_kh": "ស្នួលលិច",
    "market": "Ka3 Market",
    "market_kh": "ផ្សារកាបី",
    "google_maps_url": "https://www.google.com/maps?q=12.13887,106.721222"
  },
  {
    "id": 8,
    "branch_id": "KRA03",
    "latitude": 12.07564,
    "longitude": 106.421203,
    "province": "Kratie",
    "province_kh": "ក្រចេះ",
    "district": "Snuol",
    "district_kh": "ស្នួល",
    "commune": "Snuol",
    "commune_kh": "ស្នួល",
    "village": "Snuol Lech",
    "village_kh": "ស្នួលលិច",
    "market": "Snuol Market",
    "market_kh": "ផ្សារស្នួល",
    "google_maps_url": "https://www.google.com/maps?q=12.07564,106.421203"
  },
  {
    "id": 9,
    "branch_id": "KRA03",
    "latitude": 12.129118,
    "longitude": 106.653876,
    "province": "Kratie",
    "province_kh": "ក្រចេះ",
    "district": "Snuol",
    "district_kh": "ស្នួល",
    "commune": "Snuol",
    "commune_kh": "ស្នួល",
    "village": "Snuol Lech",
    "village_kh": "ស្នួលលិច",
    "market": "115 Market",
    "market_kh": "ផ្សារ១១៥",
    "google_maps_url": "https://www.google.com/maps?q=12.129118,106.653876"
  },
  {
    "id": 10,
    "branch_id": "PRH01",
    "latitude": 13.808539,
    "longitude": 104.978446,
    "province": "Preah Vihear",
    "province_kh": "ព្រះវិហារ",
    "district": "Preah Vihear Municipality",
    "district_kh": "ក្រុងព្រះវិហារ",
    "commune": "",
    "commune_kh": "",
    "village": "",
    "village_kh": "",
    "market": "Kampong Pranak",
    "market_kh": "ផ្សារកំពង់ប្រណាក",
    "google_maps_url": "https://www.google.com/maps?q=13.808539,104.978446"
  },
  {
    "id": 11,
    "branch_id": "MON",
    "latitude": 12.683793,
    "longitude": 107.218863,
    "province": "Mondul Kiri",
    "province_kh": "មណ្ឌលគិរី",
    "district": "Pech Chreada",
    "district_kh": "ពេជ្រាដា",
    "commune": "Pu Chrey",
    "commune_kh": "ពូជ្រៃ",
    "village": "",
    "village_kh": "",
    "market": "Pou Chrey Market",
    "market_kh": "ផ្សារពោធិ៍ជ្រៃ",
    "google_maps_url": "https://www.google.com/maps?q=12.683793,107.218863"
  },
  {
    "id": 12,
    "branch_id": "KRA03",
    "latitude": 12.294277,
    "longitude": 106.397923,
    "province": "Kratie",
    "province_kh": "ក្រចេះ",
    "district": "Snuol",
    "district_kh": "ស្នួល",
    "commune": "Khsuem",
    "commune_kh": "ឃ្សឹម",
    "village": "",
    "village_kh": "",
    "market": "Phnom Prich Market",
    "market_kh": "ផ្សារផនូម ព្រីច",
    "google_maps_url": "https://www.google.com/maps?q=12.294277,106.397923"
  },
  {
    "id": 13,
    "branch_id": "KRA01",
    "latitude": 12.295781,
    "longitude": 106.034075,
    "province": "Kratie",
    "province_kh": "ក្រចេះ",
    "district": "Chhloung",
    "district_kh": "ឆ្លូង",
    "commune": "Chhloung",
    "commune_kh": "ឆ្លូង",
    "village": "",
    "village_kh": "",
    "market": "Chher Teal Plos Market",
    "market_kh": "ផ្សារឈើទាល ព្លួស",
    "google_maps_url": "https://www.google.com/maps?q=12.295781,106.034075"
  },
  {
    "id": 14,
    "branch_id": "PRH03",
    "latitude": 14.218427,
    "longitude": 104.940373,
    "province": "Preah Vihear",
    "province_kh": "ព្រះវិហារ",
    "district": "Choam Ksant",
    "district_kh": "ជាំក្សាន្ដ",
    "commune": "Choam Ksant",
    "commune_kh": "ជាំក្សាន្ដ",
    "village": "Choam Ksant",
    "village_kh": "ជាំក្សាន្ដ",
    "market": "Choam Ksan",
    "market_kh": "ផ្សារចាម កសាន",
    "google_maps_url": "https://www.google.com/maps?q=14.218427,104.940373"
  },
  {
    "id": 15,
    "branch_id": "KRA01",
    "latitude": 12.470135,
    "longitude": 106.024407,
    "province": "Kratie",
    "province_kh": "ក្រចេះ",
    "district": "Kracheh Municipality",
    "district_kh": "ក្រុងក្រចេះ",
    "commune": "Kracheh Sangkat",
    "commune_kh": "សង្កាត់ក្រចេះ",
    "village": "Kracheh",
    "village_kh": "ក្រចេះ",
    "market": "Rokakandal Market",
    "market_kh": "ផ្សាររូកាកណ្ដាល",
    "google_maps_url": "https://www.google.com/maps?q=12.470135,106.024407"
  },
  {
    "id": 16,
    "branch_id": "KRA01",
    "latitude": 12.4968,
    "longitude": 106.036,
    "province": "Kratie",
    "province_kh": "ក្រចេះ",
    "district": "Kracheh Municipality",
    "district_kh": "ក្រុងក្រចេះ",
    "commune": "Kracheh Sangkat",
    "commune_kh": "សង្កាត់ក្រចេះ",
    "village": "Kracheh",
    "village_kh": "ក្រចេះ",
    "market": "Orussey Market",
    "market_kh": "ផ្សារអូរឫស្សី",
    "google_maps_url": "https://www.google.com/maps?q=12.4968,106.036"
  },
  {
    "id": 17,
    "branch_id": "PNP06",
    "latitude": 11.58809,
    "longitude": 104.915744,
    "province": "Phnom Penh Capital",
    "province_kh": "រាជធានីភ្នំពេញ",
    "district": "Russey Keo Khan",
    "district_kh": "ខណ្ឌឫស្សីកែវ",
    "commune": "Tuol Sangkae 1 Sangkat",
    "commune_kh": "សង្កាត់ទួលសង្កែទី១",
    "village": "Toul sangke",
    "village_kh": "ទួលសង្កែ",
    "market": "Tuol Sangke Market",
    "market_kh": "ផ្សារទួលសង្កែ",
    "google_maps_url": "https://www.google.com/maps?q=11.58809,104.915744"
  },
  {
    "id": 18,
    "branch_id": "KAM02",
    "latitude": 10.541216,
    "longitude": 104.58693,
    "province": "Kampot",
    "province_kh": "កំពត",
    "district": "Kampong Trach",
    "district_kh": "កំពង់ត្រាច",
    "commune": "Kampong Trach Khang Lech",
    "commune_kh": "កំពង់ត្រាចខាងលិច",
    "village": "Kampong Trach Ti  Pir",
    "village_kh": "កំពង់ត្រាចទី ២",
    "market": "Tonhon Markit",
    "market_kh": "ផ្សារតូញូន",
    "google_maps_url": "https://www.google.com/maps?q=10.541216,104.58693"
  },
  {
    "id": 19,
    "branch_id": "PRE",
    "latitude": 11.144336,
    "longitude": 105.483717,
    "province": "Prey Veng",
    "province_kh": "ព្រៃវែង",
    "district": "Kampong Trabaek",
    "district_kh": "កំពង់ត្របែក",
    "commune": "Kampong Trabaek",
    "commune_kh": "កំពង់ត្របែក",
    "village": "Kampong Trabaek",
    "village_kh": "កំពង់ត្របែក",
    "market": "Kampong Trabek Market",
    "market_kh": "ផ្សារកំពង់ត្របែក",
    "google_maps_url": "https://www.google.com/maps?q=11.144336,105.483717"
  },
  {
    "id": 20,
    "branch_id": "KAM02",
    "latitude": 10.555004,
    "longitude": 104.500555,
    "province": "Kampot",
    "province_kh": "កំពត",
    "district": "Kampong Trach",
    "district_kh": "កំពង់ត្រាច",
    "commune": "Kampong Trach Khang Lech",
    "commune_kh": "កំពង់ត្រាចខាងលិច",
    "village": "Kampong Trach Ti  Pir",
    "village_kh": "កំពង់ត្រាចទី ២",
    "market": "Thnol Beak Markit",
    "market_kh": "ផ្សារថ្នល់បែក",
    "google_maps_url": "https://www.google.com/maps?q=10.555004,104.500555"
  },
  {
    "id": 21,
    "branch_id": "PNP05",
    "latitude": 11.528405,
    "longitude": 104.845036,
    "province": "Phnom Penh Capital",
    "province_kh": "រាជធានីភ្នំពេញ",
    "district": "Pur SenChey Khan",
    "district_kh": "ខណ្ឌពោធិ៍សែនជ័យ",
    "commune": "Chaom Chau 2 Sangkat",
    "commune_kh": "សង្កាត់ចោមចៅទី២",
    "village": "Chaom Chau 2",
    "village_kh": "ចោមចៅ២",
    "market": "Kanacity Market",
    "market_kh": "ផ្សារកាណាស៊ីធី",
    "google_maps_url": "https://www.google.com/maps?q=11.528405,104.845036"
  },
  {
    "id": 22,
    "branch_id": "CHA03",
    "latitude": 12.028333,
    "longitude": 104.9646,
    "province": "Kampong Cham",
    "province_kh": "កំពង់ចាម",
    "district": "Kampong Cham Municipality",
    "district_kh": "ក្រុងកំពង់ចាម",
    "commune": "Kampong Cham Sangkat",
    "commune_kh": "សង្កាត់កំពង់ចាម",
    "village": "",
    "village_kh": "",
    "market": "Phav Market",
    "market_kh": "ផ្សារផាវ",
    "google_maps_url": "https://www.google.com/maps?q=12.028333,104.9646"
  },
  {
    "id": 23,
    "branch_id": "PRE",
    "latitude": 11.319409,
    "longitude": 105.281617,
    "province": "Prey Veng",
    "province_kh": "ព្រៃវែង",
    "district": "Peam Ro",
    "district_kh": "ពាមរក៍",
    "commune": "Peam Ro",
    "commune_kh": "ពាមរក៍",
    "village": "Peam Kaoh",
    "village_kh": "ពាមកោះ",
    "market": "Peam Market",
    "market_kh": "ផ្សារពាម",
    "google_maps_url": "https://www.google.com/maps?q=11.319409,105.281617"
  },
  {
    "id": 24,
    "branch_id": "PNP05",
    "latitude": 11.530341,
    "longitude": 104.853338,
    "province": "Phnom Penh Capital",
    "province_kh": "រាជធានីភ្នំពេញ",
    "district": "Pur SenChey Khan",
    "district_kh": "ខណ្ឌពោធិ៍សែនជ័យ",
    "commune": "Trapeang Krasang Sangkat",
    "commune_kh": "សង្កាត់ត្រពាំងក្រសាំង",
    "village": "Trapeang Tea",
    "village_kh": "ត្រពាំងទា",
    "market": "Tropang Thlong Market (ផ្សារត្រពាំងថ្លឹង)",
    "market_kh": "ផ្សារត្រពាំងថ្លឹង",
    "google_maps_url": "https://www.google.com/maps?q=11.530341,104.853338"
  },
  {
    "id": 25,
    "branch_id": "PRE",
    "latitude": 11.663996,
    "longitude": 105.218383,
    "province": "Prey Veng",
    "province_kh": "ព្រៃវែង",
    "district": "Pea Reang",
    "district_kh": "ពារាំង",
    "commune": "Prey Pnov",
    "commune_kh": "ព្រៃព្នៅ",
    "village": "Prey Pnov",
    "village_kh": "ព្រៃព្នៅ",
    "market": "Snay Pul Maket",
    "market_kh": "ផ្សារស្នាយពុល",
    "google_maps_url": "https://www.google.com/maps?q=11.663996,105.218383"
  },
  {
    "id": 26,
    "branch_id": "KAM03",
    "latitude": 10.738014,
    "longitude": 104.665695,
    "province": "Kampot",
    "province_kh": "កំពត",
    "district": "Angkor Chey",
    "district_kh": "អង្គរជ័យ",
    "commune": "Ankor Chey",
    "commune_kh": "អង្គរជ័យ",
    "village": "Angkor Chey Leu",
    "village_kh": "អង្គរជ័យលើ",
    "market": "Chhueteal Market",
    "market_kh": "ផ្សារឈើទាល",
    "google_maps_url": "https://www.google.com/maps?q=10.738014,104.665695"
  },
  {
    "id": 27,
    "branch_id": "PNP05",
    "latitude": 11.531809,
    "longitude": 104.86445,
    "province": "Phnom Penh Capital",
    "province_kh": "រាជធានីភ្នំពេញ",
    "district": "Pur SenChey Khan",
    "district_kh": "ខណ្ឌពោធិ៍សែនជ័យ",
    "commune": "Chaom Chau 1 Sangkat",
    "commune_kh": "សង្កាត់ចោមចៅទី១",
    "village": "Trapeang Thloeng 4",
    "village_kh": "ត្រពាំងថ្លឹង៤",
    "market": "Eark Reach 1 Market",
    "market_kh": "ផ្សា",
    "google_maps_url": "https://www.google.com/maps?q=11.531809,104.86445"
  },
  {
    "id": 28,
    "branch_id": "CHH01",
    "latitude": 12.227813,
    "longitude": 104.668957,
    "province": "Kampong Chhnang",
    "province_kh": "កំពង់ឆ្នាំង",
    "district": "Kampong Chhnang Municipality",
    "district_kh": "ក្រុងកំពង់ឆ្នាំង",
    "commune": "Kampong Chhnang Sangkat",
    "commune_kh": "សង្កាត់កំពង់ឆ្នាំង",
    "village": "",
    "village_kh": "",
    "market": "Toul Karket",
    "market_kh": "ផ្សារទួល ការកេត",
    "google_maps_url": "https://www.google.com/maps?q=12.227813,104.668957"
  },
  {
    "id": 29,
    "branch_id": "KAM01",
    "latitude": 10.605502,
    "longitude": 104.174125,
    "province": "Kampot",
    "province_kh": "កំពត",
    "district": "Kampot Municipality",
    "district_kh": "ក្រុងកំពត",
    "commune": "Traeuy Kaoh Sangkat",
    "commune_kh": "សង្កាត់ត្រើយកោះ",
    "village": "",
    "village_kh": "",
    "market": "Dey Huy",
    "market_kh": "ផ្សារដីហ៊ុយ",
    "google_maps_url": "https://www.google.com/maps?q=10.605502,104.174125"
  },
  {
    "id": 30,
    "branch_id": "BAN01",
    "latitude": 13.645227,
    "longitude": 102.590526,
    "province": "Banteay Meanchey",
    "province_kh": "បន្ទាយមានជ័យ",
    "district": "Paoy Paet Municipality",
    "district_kh": "ក្រុងប៉ោយប៉ែត",
    "commune": "Phsar Kandal Sangkat",
    "commune_kh": "សង្កាត់ផ្សារកណ្តាល",
    "village": "Phsar Kandal",
    "village_kh": "ផ្សារកណ្តាល",
    "market": "Kandal Market",
    "market_kh": "ផ្សារកណ្ដាល",
    "google_maps_url": "https://www.google.com/maps?q=13.645227,102.590526"
  },
  {
    "id": 31,
    "branch_id": "KAN",
    "latitude": 11.367535,
    "longitude": 105.004195,
    "province": "Kandal",
    "province_kh": "កណ្ដាល",
    "district": "S'ang",
    "district_kh": "ស្អាង",
    "commune": "S'ang Phnum",
    "commune_kh": "ស្អាងភ្នំ",
    "village": "Preaek Slaeng",
    "village_kh": "ព្រែកស្លែង",
    "market": "Prek Touch",
    "market_kh": "ផ្សារព្រែកតូច",
    "google_maps_url": "https://www.google.com/maps?q=11.367535,105.004195"
  },
  {
    "id": 32,
    "branch_id": "PRE",
    "latitude": 11.48569,
    "longitude": 105.32023,
    "province": "Prey Veng",
    "province_kh": "ព្រៃវែង",
    "district": "Prey Veng Municipality",
    "district_kh": "ក្រុងព្រៃវែង",
    "commune": "",
    "commune_kh": "",
    "village": "",
    "village_kh": "",
    "market": "Prey Veng Market",
    "market_kh": "ផ្សារព្រៃវែង",
    "google_maps_url": "https://www.google.com/maps?q=11.48569,105.32023"
  },
  {
    "id": 33,
    "branch_id": "PNP05",
    "latitude": 11.532176,
    "longitude": 104.867162,
    "province": "Phnom Penh Capital",
    "province_kh": "រាជធានីភ្នំពេញ",
    "district": "Pur SenChey Khan",
    "district_kh": "ខណ្ឌពោធិ៍សែនជ័យ",
    "commune": "Chaom Chau 1 Sangkat",
    "commune_kh": "សង្កាត់ចោមចៅទី១",
    "village": "Trapeang Thloeng 4",
    "village_kh": "ត្រពាំងថ្លឹង៤",
    "market": "K Mall Market",
    "market_kh": "ផ្សារK មាលល",
    "google_maps_url": "https://www.google.com/maps?q=11.532176,104.867162"
  },
  {
    "id": 34,
    "branch_id": "PNP02",
    "latitude": 11.564247,
    "longitude": 104.895975,
    "province": "Phnom Penh Capital",
    "province_kh": "រាជធានីភ្នំពេញ",
    "district": "Tuol Kouk Khan",
    "district_kh": "ខណ្ឌទួលគោក",
    "commune": "Tuek L'ak Ti Pir Sangkat",
    "commune_kh": "សង្កាត់ទឹកល្អក់ទី ២",
    "village": "",
    "village_kh": "",
    "market": "Kilo4 Market",
    "market_kh": "ផ្សារគីឡូ៤",
    "google_maps_url": "https://www.google.com/maps?q=11.564247,104.895975"
  },
  {
    "id": 35,
    "branch_id": "KAM02",
    "latitude": 10.490616,
    "longitude": 104.457501,
    "province": "Kampot",
    "province_kh": "កំពត",
    "district": "Kampong Trach",
    "district_kh": "កំពង់ត្រាច",
    "commune": "Kampong Trach Khang Lech",
    "commune_kh": "កំពង់ត្រាចខាងលិច",
    "village": "Kampong Trach Ti  Pir",
    "village_kh": "កំពង់ត្រាចទី ២",
    "market": "Russey Srok Markit",
    "market_kh": "ផ្សារឫស្សីស្រុក",
    "google_maps_url": "https://www.google.com/maps?q=10.490616,104.457501"
  },
  {
    "id": 36,
    "branch_id": "CHA09",
    "latitude": 11.795719,
    "longitude": 105.50222,
    "province": "Tboung Khmum",
    "province_kh": "ត្បូងឃ្មុំ",
    "district": "Ou Reang Ov",
    "district_kh": "អូររាំងឪ",
    "commune": "",
    "commune_kh": "",
    "village": "",
    "village_kh": "",
    "market": "Ou Reang Ov Market",
    "market_kh": "ផ្សារអូររាំងឪ",
    "google_maps_url": "https://www.google.com/maps?q=11.795719,105.50222"
  },
  {
    "id": 37,
    "branch_id": "SPE01",
    "latitude": 11.475292,
    "longitude": 104.563184,
    "province": "Kampong Speu",
    "province_kh": "កំពង់ស្ពឺ",
    "district": "Samraong Tong",
    "district_kh": "សំរោងទង",
    "commune": "Samrong Tong",
    "commune_kh": "សំរោងទង",
    "village": "Samrong Tong Leu",
    "village_kh": "សំរោងទងលើ",
    "market": "Chambot Market",
    "market_kh": "ផ្សារចាមបូត",
    "google_maps_url": "https://www.google.com/maps?q=11.475292,104.563184"
  },
  {
    "id": 38,
    "branch_id": "PNP02",
    "latitude": 11.560151,
    "longitude": 104.901025,
    "province": "Phnom Penh Capital",
    "province_kh": "រាជធានីភ្នំពេញ",
    "district": "Tuol Kouk Khan",
    "district_kh": "ខណ្ឌទួលគោក",
    "commune": "Phsar Daeum Kor Sangkat",
    "commune_kh": "សង្កាត់ផ្សារដើមគរ",
    "village": "",
    "village_kh": "",
    "market": "Khlaing Romsev Market",
    "market_kh": "ផ្សារឃ្លាំងរំសេវ",
    "google_maps_url": "https://www.google.com/maps?q=11.560151,104.901025"
  },
  {
    "id": 39,
    "branch_id": "TAK03",
    "latitude": 11.165315,
    "longitude": 104.878747,
    "province": "Takeo",
    "province_kh": "តាកែវ",
    "district": "Prey Kabbas",
    "district_kh": "ព្រៃកប្បាស",
    "commune": "Prey Kabbas",
    "commune_kh": "ព្រៃកប្បាស",
    "village": "Prey Kabbas Ko",
    "village_kh": "ព្រៃកប្បាស គ",
    "market": "Sai Va Market",
    "market_kh": "ផ្សារសៃ វា",
    "google_maps_url": "https://www.google.com/maps?q=11.165315,104.878747"
  },
  {
    "id": 40,
    "branch_id": "BAN01",
    "latitude": 13.586619,
    "longitude": 102.972185,
    "province": "Banteay Meanchey",
    "province_kh": "បន្ទាយមានជ័យ",
    "district": "Serei Saophoan Municipality",
    "district_kh": "ក្រុងសិរីសោភ័ណ",
    "commune": "",
    "commune_kh": "",
    "village": "",
    "village_kh": "",
    "market": "Serey Sophan Market",
    "market_kh": "ផ្សារសិរីសោភ័ណ",
    "google_maps_url": "https://www.google.com/maps?q=13.586619,102.972185"
  },
  {
    "id": 41,
    "branch_id": "CHA04",
    "latitude": 11.909298,
    "longitude": 105.65427,
    "province": "Tboung Khmum",
    "province_kh": "ត្បូងឃ្មុំ",
    "district": "Suong Municipality",
    "district_kh": "ក្រុងសួង",
    "commune": "Suong Sangkat",
    "commune_kh": "សង្កាត់សួង",
    "village": "Suong Lech",
    "village_kh": "សួងលិច",
    "market": "Suong Market",
    "market_kh": "ផ្សារសុូង",
    "google_maps_url": "https://www.google.com/maps?q=11.909298,105.65427"
  },
  {
    "id": 42,
    "branch_id": "KAM02",
    "latitude": 10.558627,
    "longitude": 104.467039,
    "province": "Kampot",
    "province_kh": "កំពត",
    "district": "Kampong Trach",
    "district_kh": "កំពង់ត្រាច",
    "commune": "Kampong Trach Khang Lech",
    "commune_kh": "កំពង់ត្រាចខាងលិច",
    "village": "Kampong Trach Ti  Pir",
    "village_kh": "កំពង់ត្រាចទី ២",
    "market": "Kampnog Trach",
    "market_kh": "ផ្សារកំពង់ ត្រាច",
    "google_maps_url": "https://www.google.com/maps?q=10.558627,104.467039"
  },
  {
    "id": 43,
    "branch_id": "PNP01",
    "latitude": 11.569719,
    "longitude": 104.92202,
    "province": "Phnom Penh Capital",
    "province_kh": "រាជធានីភ្នំពេញ",
    "district": "Doun Penh Khan",
    "district_kh": "ខណ្ឌដូនពេញ",
    "commune": "Phsar Thmei Ti Muoy Sangkat",
    "commune_kh": "សង្កាត់ផ្សារថ្មីទី ១",
    "village": "",
    "village_kh": "",
    "market": "Psar Thom Tmey",
    "market_kh": "ផ្សារធំថ្មី",
    "google_maps_url": "https://www.google.com/maps?q=11.569719,104.92202"
  },
  {
    "id": 44,
    "branch_id": "PRE",
    "latitude": 11.584181,
    "longitude": 105.213711,
    "province": "Prey Veng",
    "province_kh": "ព្រៃវែង",
    "district": "Pur Rieng",
    "district_kh": "ពោធិ៍រៀង",
    "commune": "Pou Rieng",
    "commune_kh": "ពោធិ៍រៀង",
    "village": "Pou Rieng Tboung",
    "village_kh": "ពោធិ៍រៀងត្បូង",
    "market": "Kampong Ruessei Market",
    "market_kh": "ផ្សារកំពង់ រុេសសី",
    "google_maps_url": "https://www.google.com/maps?q=11.584181,105.213711"
  },
  {
    "id": 45,
    "branch_id": "PNP04",
    "latitude": 11.575925,
    "longitude": 104.853578,
    "province": "Phnom Penh Capital",
    "province_kh": "រាជធានីភ្នំពេញ",
    "district": "Saensokh Khan",
    "district_kh": "ខណ្ឌសែនសុខ",
    "commune": "Kouk Khleang Sangkat",
    "commune_kh": "សង្កាត់គោកឃ្លាង",
    "village": "Kouk Khleang",
    "village_kh": "គោកឃ្លាង",
    "market": "Chouk Meas Market",
    "market_kh": "ផ្សារឈូក មេាស",
    "google_maps_url": "https://www.google.com/maps?q=11.575925,104.853578"
  },
  {
    "id": 46,
    "branch_id": "PNP02",
    "latitude": 11.557403,
    "longitude": 104.903833,
    "province": "Phnom Penh Capital",
    "province_kh": "រាជធានីភ្នំពេញ",
    "district": "Tuol Kouk Khan",
    "district_kh": "ខណ្ឌទួលគោក",
    "commune": "Phsar Daeum Kor Sangkat",
    "commune_kh": "សង្កាត់ផ្សារដើមគរ",
    "village": "",
    "village_kh": "",
    "market": "Neak Meas Market",
    "market_kh": "ផ្សារនេាក មេាស",
    "google_maps_url": "https://www.google.com/maps?q=11.557403,104.903833"
  },
  {
    "id": 47,
    "branch_id": "BAN01",
    "latitude": 13.589852,
    "longitude": 102.97264,
    "province": "Banteay Meanchey",
    "province_kh": "បន្ទាយមានជ័យ",
    "district": "Serei Saophoan Municipality",
    "district_kh": "ក្រុងសិរីសោភ័ណ",
    "commune": "",
    "commune_kh": "",
    "village": "",
    "village_kh": "",
    "market": "Phalitphal Khmer",
    "market_kh": "ផ្សារផាលីតផាល ខមេរ",
    "google_maps_url": "https://www.google.com/maps?q=13.589852,102.97264"
  },
  {
    "id": 48,
    "branch_id": "PRE",
    "latitude": 11.196766,
    "longitude": 105.361697,
    "province": "Prey Veng",
    "province_kh": "ព្រៃវែង",
    "district": "Preah Sdach",
    "district_kh": "ព្រះស្ដេច",
    "commune": "Kampong Soeng",
    "commune_kh": "កំពង់សឹង",
    "village": "",
    "village_kh": "",
    "market": "Rum Chek Market",
    "market_kh": "ផ្សាររុម ចេក",
    "google_maps_url": "https://www.google.com/maps?q=11.196766,105.361697"
  },
  {
    "id": 49,
    "branch_id": "BAN02",
    "latitude": 13.657754,
    "longitude": 102.565851,
    "province": "Banteay Meanchey",
    "province_kh": "បន្ទាយមានជ័យ",
    "district": "Paoy Paet Municipality",
    "district_kh": "ក្រុងប៉ោយប៉ែត",
    "commune": "Paoy Paet Sangkat",
    "commune_kh": "សង្កាត់ប៉ោយប៉ែត",
    "village": "Tuol Prasat",
    "village_kh": "ទួលប្រាសាទ",
    "market": "Akak Market",
    "market_kh": "ផ្សារាកាក",
    "google_maps_url": "https://www.google.com/maps?q=13.657754,102.565851"
  },
  {
    "id": 50,
    "branch_id": "PNP08",
    "latitude": 11.527284,
    "longitude": 104.880732,
    "province": "Phnom Penh Capital",
    "province_kh": "រាជធានីភ្នំពេញ",
    "district": "Mean Chey Khan",
    "district_kh": "ខណ្ឌមានជ័យ",
    "commune": "Stueng Mean chey 3 Sangkat",
    "commune_kh": "សង្កាត់ស្ទឹងមានជ័យទី៣",
    "village": "",
    "village_kh": "",
    "market": "Lim Chheang Hak",
    "market_kh": "ផ្សារលីម ឆេាង ហាក",
    "google_maps_url": "https://www.google.com/maps?q=11.527284,104.880732"
  },
  {
    "id": 51,
    "branch_id": "BAN02",
    "latitude": 13.463642,
    "longitude": 103.01407,
    "province": "Banteay Meanchey",
    "province_kh": "បន្ទាយមានជ័យ",
    "district": "Mongkol Borei",
    "district_kh": "មង្គលបូរី",
    "commune": "Ou Prasat",
    "commune_kh": "អូរប្រាសាទ",
    "village": "Ou Prasat",
    "village_kh": "អូរប្រាសាទ",
    "market": "Ou Snguot Tmey",
    "market_kh": "ផ្សារអូរស្ងួតថ្មី",
    "google_maps_url": "https://www.google.com/maps?q=13.463642,103.01407"
  },
  {
    "id": 52,
    "branch_id": "BAN02",
    "latitude": 13.470129,
    "longitude": 103.052915,
    "province": "Banteay Meanchey",
    "province_kh": "បន្ទាយមានជ័យ",
    "district": "Mongkol Borei",
    "district_kh": "មង្គលបូរី",
    "commune": "Kouk Ballangk",
    "commune_kh": "គោកបល្ល័ង្គ",
    "village": "Kouk Ballangk",
    "village_kh": "គោកបល្ល័ង្ក",
    "market": "Ou Orndounh",
    "market_kh": "ផ្សារអូ ូរនដអូញ",
    "google_maps_url": "https://www.google.com/maps?q=13.470129,103.052915"
  },
  {
    "id": 53,
    "branch_id": "BAN01",
    "latitude": 13.59,
    "longitude": 102.970562,
    "province": "Banteay Meanchey",
    "province_kh": "បន្ទាយមានជ័យ",
    "district": "Serei Saophoan Municipality",
    "district_kh": "ក្រុងសិរីសោភ័ណ",
    "commune": "",
    "commune_kh": "",
    "village": "",
    "village_kh": "",
    "market": "Thom Mean Chey Market",
    "market_kh": "ផ្សារធំ មានជ័យ",
    "google_maps_url": "https://www.google.com/maps?q=13.59,102.970562"
  },
  {
    "id": 54,
    "branch_id": "PNP05",
    "latitude": 11.540926,
    "longitude": 104.818711,
    "province": "Phnom Penh Capital",
    "province_kh": "រាជធានីភ្នំពេញ",
    "district": "Pur SenChey Khan",
    "district_kh": "ខណ្ឌពោធិ៍សែនជ័យ",
    "commune": "Chaom Chau 3 Sangkat",
    "commune_kh": "សង្កាត់ចោមចៅទី៣",
    "village": "Prey Pring Khang Tboung 2",
    "village_kh": "ព្រៃព្រីងខាងត្បូង២",
    "market": "Qmi Market",
    "market_kh": "ផ្សារQMI",
    "google_maps_url": "https://www.google.com/maps?q=11.540926,104.818711"
  },
  {
    "id": 55,
    "branch_id": "BAN02",
    "latitude": 13.65775,
    "longitude": 102.562619,
    "province": "Banteay Meanchey",
    "province_kh": "បន្ទាយមានជ័យ",
    "district": "Paoy Paet Municipality",
    "district_kh": "ក្រុងប៉ោយប៉ែត",
    "commune": "Paoy Paet Sangkat",
    "commune_kh": "សង្កាត់ប៉ោយប៉ែត",
    "village": "Poay Pet",
    "village_kh": "ប៉ោយប៉ែត",
    "market": "Trey Market",
    "market_kh": "ផ្សារត្រេយ",
    "google_maps_url": "https://www.google.com/maps?q=13.65775,102.562619"
  },
  {
    "id": 56,
    "branch_id": "KAM03",
    "latitude": 10.668502,
    "longitude": 104.560742,
    "province": "Kampot",
    "province_kh": "កំពត",
    "district": "Banteay Meas",
    "district_kh": "បន្ទាយមាស",
    "commune": "Banteay Meas Khang lech",
    "commune_kh": "បន្ទាយមាសខាងលិច",
    "village": "Banteay Meas",
    "village_kh": "បន្ទាយមាស",
    "market": "Touk Meas",
    "market_kh": "ផ្សារទូកមាស",
    "google_maps_url": "https://www.google.com/maps?q=10.668502,104.560742"
  },
  {
    "id": 57,
    "branch_id": "BAN01",
    "latitude": 13.683671,
    "longitude": 102.62368,
    "province": "Banteay Meanchey",
    "province_kh": "បន្ទាយមានជ័យ",
    "district": "Paoy Paet Municipality",
    "district_kh": "ក្រុងប៉ោយប៉ែត",
    "commune": "Paoy Paet Sangkat",
    "commune_kh": "សង្កាត់ប៉ោយប៉ែត",
    "village": "Poay Pet",
    "village_kh": "ប៉ោយប៉ែត",
    "market": "Brotulden Oreussei Martket",
    "market_kh": "ផ្សារប្រូតុលដេន អូរឫស្សី",
    "google_maps_url": "https://www.google.com/maps?q=13.683671,102.62368"
  },
  {
    "id": 58,
    "branch_id": "KAN",
    "latitude": 11.469507,
    "longitude": 104.951217,
    "province": "Kandal",
    "province_kh": "កណ្ដាល",
    "district": "Ta Khmau Municipality",
    "district_kh": "ក្រុងតាខ្មៅ",
    "commune": "Ta Khmao Sangkat",
    "commune_kh": "សង្កាត់តាខ្មៅ",
    "village": "Ta Khmao",
    "village_kh": "តាខ្មៅ",
    "market": "Phsar Kach Chrong",
    "market_kh": "ផ្សារ កាច ចរូង",
    "google_maps_url": "https://www.google.com/maps?q=11.469507,104.951217"
  },
  {
    "id": 59,
    "branch_id": "CHH01",
    "latitude": 12.280805,
    "longitude": 104.665212,
    "province": "Kampong Chhnang",
    "province_kh": "កំពង់ឆ្នាំង",
    "district": "Kampong Chhnang Municipality",
    "district_kh": "ក្រុងកំពង់ឆ្នាំង",
    "commune": "Kampong Chhnang Sangkat",
    "commune_kh": "សង្កាត់កំពង់ឆ្នាំង",
    "village": "",
    "village_kh": "",
    "market": "Kompong Chhnang Market",
    "market_kh": "ផ្សារកំពង់ឆ្នាំង",
    "google_maps_url": "https://www.google.com/maps?q=12.280805,104.665212"
  },
  {
    "id": 60,
    "branch_id": "BAN05",
    "latitude": 13.805084,
    "longitude": 102.964792,
    "province": "Banteay Meanchey",
    "province_kh": "បន្ទាយមានជ័យ",
    "district": "Svay Chek",
    "district_kh": "ស្វាយចេក",
    "commune": "Svay Chek",
    "commune_kh": "ស្វាយចេក",
    "village": "Ponsay Cheung",
    "village_kh": "ពន្សាយជើង",
    "market": "Rolous Market",
    "market_kh": "ផ្សាររូលអូស",
    "google_maps_url": "https://www.google.com/maps?q=13.805084,102.964792"
  },
  {
    "id": 61,
    "branch_id": "PNP02",
    "latitude": 11.5528,
    "longitude": 104.903288,
    "province": "Phnom Penh Capital",
    "province_kh": "រាជធានីភ្នំពេញ",
    "district": "Doun Penh Khan",
    "district_kh": "ខណ្ឌដូនពេញ",
    "commune": "Boeng Reang Sangkat",
    "commune_kh": "សង្កាត់បឹងរាំង",
    "village": "",
    "village_kh": "",
    "market": "Chan La Market",
    "market_kh": "ផ្សារចាន លា",
    "google_maps_url": "https://www.google.com/maps?q=11.5528,104.903288"
  },
  {
    "id": 62,
    "branch_id": "SPE02",
    "latitude": 11.823312,
    "longitude": 104.743776,
    "province": "Kampong Speu",
    "province_kh": "កំពង់ស្ពឺ",
    "district": "Odongk",
    "district_kh": "ឧដុង្គ",
    "commune": "Trach Tong",
    "commune_kh": "ត្រាចទង",
    "village": "Boeng",
    "village_kh": "បឹង",
    "market": "Odongk",
    "market_kh": "ផ្សារូដូងក",
    "google_maps_url": "https://www.google.com/maps?q=11.823312,104.743776",
    "aliases": [
      "Odong",
      "Oudong",
      "Udong",
      "Udongk",
      "Oodong",
      "Oadong",
      "ឧដុង្គ",
      "ឧដុង",
      "ឧត្ដុង",
      "ឧត្តុង",
      "ឪត្ដុង",
      "ឪដុង"
    ],
    "search_keywords": [
      "odong",
      "oudong",
      "udong",
      "odongk",
      "udongk",
      "oadong",
      "phsar odong",
      "phsar odongk",
      "ឧដុង្គ",
      "ឧដុង",
      "ឧត្ដុង",
      "ឧត្តុង",
      "ឪត្ដុង",
      "ឪដុង",
      "ផ្សារឧដុង្គ",
      "ផ្សារឧត្ដុង"
    ]
  },
  {
    "id": 63,
    "branch_id": "PRE",
    "latitude": 11.262113,
    "longitude": 105.287093,
    "province": "Prey Veng",
    "province_kh": "ព្រៃវែង",
    "district": "Peam Ro",
    "district_kh": "ពាមរក៍",
    "commune": "Neak Loeang",
    "commune_kh": "អ្នកលឿង",
    "village": "Neak Loeang",
    "village_kh": "អ្នកលឿង",
    "market": "Neak Loeung Market",
    "market_kh": "ផ្សារអ្នកលឿង",
    "google_maps_url": "https://www.google.com/maps?q=11.262113,105.287093"
  },
  {
    "id": 64,
    "branch_id": "PNP02",
    "latitude": 11.55374,
    "longitude": 104.90232,
    "province": "Phnom Penh Capital",
    "province_kh": "រាជធានីភ្នំពេញ",
    "district": "Tuol Kouk Khan",
    "district_kh": "ខណ្ឌទួលគោក",
    "commune": "Phsar Daeum Kor Sangkat",
    "commune_kh": "សង្កាត់ផ្សារដើមគរ",
    "village": "",
    "village_kh": "",
    "market": "Derm Kor Market",
    "market_kh": "ផ្សារដើមគរ",
    "google_maps_url": "https://www.google.com/maps?q=11.55374,104.90232"
  },
  {
    "id": 65,
    "branch_id": "PNP05",
    "latitude": 11.538128,
    "longitude": 104.819936,
    "province": "Phnom Penh Capital",
    "province_kh": "រាជធានីភ្នំពេញ",
    "district": "Pur SenChey Khan",
    "district_kh": "ខណ្ឌពោធិ៍សែនជ័យ",
    "commune": "Chaom Chau 3 Sangkat",
    "commune_kh": "សង្កាត់ចោមចៅទី៣",
    "village": "Prey Pring Khang Tboung 2",
    "village_kh": "ព្រៃព្រីងខាងត្បូង២",
    "market": "Ekreach 2 Market",
    "market_kh": "ផ្សារេក្រេាច 2",
    "google_maps_url": "https://www.google.com/maps?q=11.538128,104.819936"
  },
  {
    "id": 66,
    "branch_id": "PNP08",
    "latitude": 11.523539,
    "longitude": 104.895125,
    "province": "Phnom Penh Capital",
    "province_kh": "រាជធានីភ្នំពេញ",
    "district": "Dangkao Khan",
    "district_kh": "ខណ្ឌដង្កោ",
    "commune": "Dangkao Sangkat",
    "commune_kh": "សង្កាត់ដង្កោ",
    "village": "Sambuor",
    "village_kh": "សំបួរ",
    "market": "Tom Nubthmey",
    "market_kh": "ផ្សារតូម នុបថមេយ",
    "google_maps_url": "https://www.google.com/maps?q=11.523539,104.895125"
  },
  {
    "id": 67,
    "branch_id": "PRE",
    "latitude": 11.563911,
    "longitude": 105.414662,
    "province": "Prey Veng",
    "province_kh": "ព្រៃវែង",
    "district": "Svay Antor",
    "district_kh": "ស្វាយអន្ទរ",
    "commune": "Svay Antor",
    "commune_kh": "ស្វាយអន្ទរ",
    "village": "Svay Antor Ti Pir",
    "village_kh": "ស្វាយអន្ទរទី ២",
    "market": "Svay Antor Market",
    "market_kh": "ផ្សារស្វាយអន្ទរ",
    "google_maps_url": "https://www.google.com/maps?q=11.563911,105.414662"
  },
  {
    "id": 68,
    "branch_id": "BAN02",
    "latitude": 13.658558,
    "longitude": 102.560398,
    "province": "Banteay Meanchey",
    "province_kh": "បន្ទាយមានជ័យ",
    "district": "Paoy Paet Municipality",
    "district_kh": "ក្រុងប៉ោយប៉ែត",
    "commune": "Paoy Paet Sangkat",
    "commune_kh": "សង្កាត់ប៉ោយប៉ែត",
    "village": "Poay Pet",
    "village_kh": "ប៉ោយប៉ែត",
    "market": "Derm Puthrea Market",
    "market_kh": "ផ្សារដេរម ពុថរេា",
    "google_maps_url": "https://www.google.com/maps?q=13.658558,102.560398"
  },
  {
    "id": 69,
    "branch_id": "SPE01",
    "latitude": 11.482972,
    "longitude": 104.611592,
    "province": "Kampong Speu",
    "province_kh": "កំពង់ស្ពឺ",
    "district": "Samraong Tong",
    "district_kh": "សំរោងទង",
    "commune": "Krang Ampil",
    "commune_kh": "ក្រាំងអំពិល",
    "village": "",
    "village_kh": "",
    "market": "Prey Phet Market",
    "market_kh": "ផ្សារព្រៃភេត",
    "google_maps_url": "https://www.google.com/maps?q=11.482972,104.611592"
  },
  {
    "id": 70,
    "branch_id": "KAM02",
    "latitude": 10.533954,
    "longitude": 104.382663,
    "province": "Kep",
    "province_kh": "កែប",
    "district": "Damnak Chang'aeur",
    "district_kh": "ដំណាក់ចង្អើរ",
    "commune": "Pong Tuek",
    "commune_kh": "ពងទឹក",
    "village": "",
    "village_kh": "",
    "market": "Pong Toek",
    "market_kh": "ផ្សារពងទឹក",
    "google_maps_url": "https://www.google.com/maps?q=10.533954,104.382663"
  },
  {
    "id": 71,
    "branch_id": "CHA03",
    "latitude": 12.086489,
    "longitude": 104.973963,
    "province": "Kampong Cham",
    "province_kh": "កំពង់ចាម",
    "district": "Batheay",
    "district_kh": "បាធាយ",
    "commune": "Batheay",
    "commune_kh": "បាធាយ",
    "village": "Batheay",
    "village_kh": "បាធាយ",
    "market": "Tum Nob Market",
    "market_kh": "ផ្សារទំនប់",
    "google_maps_url": "https://www.google.com/maps?q=12.086489,104.973963"
  },
  {
    "id": 72,
    "branch_id": "BAT04",
    "latitude": 13.26227,
    "longitude": 103.088585,
    "province": "Battambang",
    "province_kh": "បាត់ដំបង",
    "district": "Thma Koul",
    "district_kh": "ថ្មគោល",
    "commune": "",
    "commune_kh": "",
    "village": "",
    "village_kh": "",
    "market": "Thma Koul Markat",
    "market_kh": "ផ្សារថ្មគោល",
    "google_maps_url": "https://www.google.com/maps?q=13.26227,103.088585"
  },
  {
    "id": 73,
    "branch_id": "PNP08",
    "latitude": 11.519953,
    "longitude": 104.883918,
    "province": "Phnom Penh Capital",
    "province_kh": "រាជធានីភ្នំពេញ",
    "district": "Dangkao Khan",
    "district_kh": "ខណ្ឌដង្កោ",
    "commune": "Dangkao Sangkat",
    "commune_kh": "សង្កាត់ដង្កោ",
    "village": "Khva",
    "village_kh": "ខ្វា",
    "market": "Som Bou Meas",
    "market_kh": "ផ្សារសូម បអូ មេាស",
    "google_maps_url": "https://www.google.com/maps?q=11.519953,104.883918"
  },
  {
    "id": 74,
    "branch_id": "CHH01",
    "latitude": 12.255166,
    "longitude": 104.669102,
    "province": "Kampong Chhnang",
    "province_kh": "កំពង់ឆ្នាំង",
    "district": "Kampong Chhnang Municipality",
    "district_kh": "ក្រុងកំពង់ឆ្នាំង",
    "commune": "Kampong Chhnang Sangkat",
    "commune_kh": "សង្កាត់កំពង់ឆ្នាំង",
    "village": "",
    "village_kh": "",
    "market": "Psar Ler Market",
    "market_kh": "ផ្សារ លើ",
    "google_maps_url": "https://www.google.com/maps?q=12.255166,104.669102"
  },
  {
    "id": 75,
    "branch_id": "BAN01",
    "latitude": 13.58741,
    "longitude": 102.979476,
    "province": "Banteay Meanchey",
    "province_kh": "បន្ទាយមានជ័យ",
    "district": "Serei Saophoan Municipality",
    "district_kh": "ក្រុងសិរីសោភ័ណ",
    "commune": "Preah Ponlea Sangkat",
    "commune_kh": "សង្កាត់ព្រះពន្លា",
    "village": "Preah Ponlea",
    "village_kh": "ព្រះពន្លា",
    "market": "Reatrey Market Banteay Meanchey",
    "market_kh": "ផ្សាររេាត្រេយ បន្ទាយមានជ័យ",
    "google_maps_url": "https://www.google.com/maps?q=13.58741,102.979476"
  },
  {
    "id": 76,
    "branch_id": "CHA01",
    "latitude": 11.977313,
    "longitude": 105.459108,
    "province": "Kampong Cham",
    "province_kh": "កំពង់ចាម",
    "district": "Kampong Cham Municipality",
    "district_kh": "ក្រុងកំពង់ចាម",
    "commune": "Kampong Cham Sangkat",
    "commune_kh": "សង្កាត់កំពង់ចាម",
    "village": "",
    "village_kh": "",
    "market": "7 Makara",
    "market_kh": "ផ្សារ៧មករា",
    "google_maps_url": "https://www.google.com/maps?q=11.977313,105.459108"
  },
  {
    "id": 77,
    "branch_id": "KAN",
    "latitude": 11.458531,
    "longitude": 104.981651,
    "province": "Kandal",
    "province_kh": "កណ្ដាល",
    "district": "Ta Khmau Municipality",
    "district_kh": "ក្រុងតាខ្មៅ",
    "commune": "Ta Khmao Sangkat",
    "commune_kh": "សង្កាត់តាខ្មៅ",
    "village": "Ta Khmao",
    "village_kh": "តាខ្មៅ",
    "market": "Dermpor Market",
    "market_kh": "ផ្សារដេរមពូរ",
    "google_maps_url": "https://www.google.com/maps?q=11.458531,104.981651"
  },
  {
    "id": 78,
    "branch_id": "TAK01",
    "latitude": 10.994327,
    "longitude": 104.78508,
    "province": "Takeo",
    "province_kh": "តាកែវ",
    "district": "Doun Kaev Municipality",
    "district_kh": "ក្រុងដូនកែវ",
    "commune": "",
    "commune_kh": "",
    "village": "",
    "village_kh": "",
    "market": "Phsa Nat Market",
    "market_kh": "ផ្សារ នាត",
    "google_maps_url": "https://www.google.com/maps?q=10.994327,104.78508"
  },
  {
    "id": 79,
    "branch_id": "PRE",
    "latitude": 11.257917,
    "longitude": 105.40039,
    "province": "Prey Veng",
    "province_kh": "ព្រៃវែង",
    "district": "Ba Phnum",
    "district_kh": "បាភ្នំ",
    "commune": "Cheung Phnum",
    "commune_kh": "ជើងភ្នំ",
    "village": "",
    "village_kh": "",
    "market": "Baphnom Market",
    "market_kh": "ផ្សារបាភ្នំ",
    "google_maps_url": "https://www.google.com/maps?q=11.257917,105.40039"
  },
  {
    "id": 80,
    "branch_id": "BAN01",
    "latitude": 13.694559,
    "longitude": 102.651137,
    "province": "Banteay Meanchey",
    "province_kh": "បន្ទាយមានជ័យ",
    "district": "Paoy Paet Municipality",
    "district_kh": "ក្រុងប៉ោយប៉ែត",
    "commune": "Paoy Paet Sangkat",
    "commune_kh": "សង្កាត់ប៉ោយប៉ែត",
    "village": "Poay Pet",
    "village_kh": "ប៉ោយប៉ែត",
    "market": "O’Neang Market",
    "market_kh": "ផ្សារូ’នេាង",
    "google_maps_url": "https://www.google.com/maps?q=13.694559,102.651137"
  },
  {
    "id": 81,
    "branch_id": "BAN02",
    "latitude": 13.671097,
    "longitude": 102.55763,
    "province": "Banteay Meanchey",
    "province_kh": "បន្ទាយមានជ័យ",
    "district": "Paoy Paet Municipality",
    "district_kh": "ក្រុងប៉ោយប៉ែត",
    "commune": "Paoy Paet Sangkat",
    "commune_kh": "សង្កាត់ប៉ោយប៉ែត",
    "village": "Poay Pet",
    "village_kh": "ប៉ោយប៉ែត",
    "market": "Big C Market",
    "market_kh": "ផ្សារ Big C",
    "google_maps_url": "https://www.google.com/maps?q=13.671097,102.55763"
  },
  {
    "id": 82,
    "branch_id": "PNP01",
    "latitude": 11.569131,
    "longitude": 104.92273,
    "province": "Phnom Penh Capital",
    "province_kh": "រាជធានីភ្នំពេញ",
    "district": "Doun Penh Khan",
    "district_kh": "ខណ្ឌដូនពេញ",
    "commune": "",
    "commune_kh": "",
    "village": "",
    "village_kh": "",
    "market": "Phsar Ta Pang",
    "market_kh": "ផ្សារ តា ពាង",
    "google_maps_url": "https://www.google.com/maps?q=11.569131,104.92273"
  },
  {
    "id": 83,
    "branch_id": "CHA05",
    "latitude": 11.789725,
    "longitude": 106.093701,
    "province": "Tboung Khmum",
    "province_kh": "ត្បូងឃ្មុំ",
    "district": "Memot",
    "district_kh": "មេមត់",
    "commune": "Memot",
    "commune_kh": "មេមត់",
    "village": "Memot Phsar",
    "village_kh": "មេមត់ផ្សារ",
    "market": "Dar Market",
    "market_kh": "ផ្សារដារ",
    "google_maps_url": "https://www.google.com/maps?q=11.789725,106.093701"
  },
  {
    "id": 84,
    "branch_id": "CHH01",
    "latitude": 12.265107,
    "longitude": 104.678583,
    "province": "Kampong Chhnang",
    "province_kh": "កំពង់ឆ្នាំង",
    "district": "Kampong Chhnang Municipality",
    "district_kh": "ក្រុងកំពង់ឆ្នាំង",
    "commune": "Kampong Chhnang Sangkat",
    "commune_kh": "សង្កាត់កំពង់ឆ្នាំង",
    "village": "",
    "village_kh": "",
    "market": "Psar Khrom Market",
    "market_kh": "ផ្សារក្រោម",
    "google_maps_url": "https://www.google.com/maps?q=12.265107,104.678583"
  },
  {
    "id": 85,
    "branch_id": "PRH03",
    "latitude": 14.237905,
    "longitude": 104.732241,
    "province": "Preah Vihear",
    "province_kh": "ព្រះវិហារ",
    "district": "Choam Ksant",
    "district_kh": "ជាំក្សាន្ដ",
    "commune": "Sror Aem",
    "commune_kh": "ស្រអែម",
    "village": "Sra aem Khang Cheung",
    "village_kh": "ស្រអែមខាងជើង",
    "market": "Heng Phea Sream",
    "market_kh": "ផ្សារហេង ផេា ស្រេាម",
    "google_maps_url": "https://www.google.com/maps?q=14.237905,104.732241"
  },
  {
    "id": 86,
    "branch_id": "KAN01",
    "latitude": 11.456117,
    "longitude": 104.932051,
    "province": "Kandal",
    "province_kh": "កណ្ដាល",
    "district": "Ta Khmau Municipality",
    "district_kh": "ក្រុងតាខ្មៅ",
    "commune": "Ta Khmao Sangkat",
    "commune_kh": "សង្កាត់តាខ្មៅ",
    "village": "Ta Khmao",
    "village_kh": "តាខ្មៅ",
    "market": "Prekho  Market",
    "market_kh": "ផ្សារព្រេខូ",
    "google_maps_url": "https://www.google.com/maps?q=11.456117,104.932051"
  },
  {
    "id": 87,
    "branch_id": "SPE01",
    "latitude": 11.485119,
    "longitude": 104.624282,
    "province": "Kampong Speu",
    "province_kh": "កំពង់ស្ពឺ",
    "district": "Samraong Tong",
    "district_kh": "សំរោងទង",
    "commune": "Samrong Tong",
    "commune_kh": "សំរោងទង",
    "village": "Samrong Tong Leu",
    "village_kh": "សំរោងទងលើ",
    "market": "Trapeang Kong Market",
    "market_kh": "ផ្សារត្រពាំងគង",
    "google_maps_url": "https://www.google.com/maps?q=11.485119,104.624282"
  },
  {
    "id": 88,
    "branch_id": "CHH01",
    "latitude": 12.17183,
    "longitude": 104.663322,
    "province": "Kampong Chhnang",
    "province_kh": "កំពង់ឆ្នាំង",
    "district": "Rolea B'ier",
    "district_kh": "រលាប្អៀរ",
    "commune": "Prey Mul",
    "commune_kh": "ព្រៃមូល",
    "village": "Prey Kraol",
    "village_kh": "ព្រៃក្រោល",
    "market": "Prey Khmer Market",
    "market_kh": "ផ្សារព្រៃខ្មែរ",
    "google_maps_url": "https://www.google.com/maps?q=12.17183,104.663322"
  },
  {
    "id": 89,
    "branch_id": "TAK03",
    "latitude": 11.264915,
    "longitude": 104.825458,
    "province": "Takeo",
    "province_kh": "តាកែវ",
    "district": "Bati",
    "district_kh": "បាទី",
    "commune": "Chambak",
    "commune_kh": "ចំបក់",
    "village": "Bacham",
    "village_kh": "បចាម",
    "market": "Samrong Yaong Market",
    "market_kh": "ផ្សារសំរោងយ៉ោង",
    "google_maps_url": "https://www.google.com/maps?q=11.264915,104.825458"
  },
  {
    "id": 90,
    "branch_id": "KAN",
    "latitude": 11.455651,
    "longitude": 104.990203,
    "province": "Kandal",
    "province_kh": "កណ្ដាល",
    "district": "Ta Khmau Municipality",
    "district_kh": "ក្រុងតាខ្មៅ",
    "commune": "Ta Khmao Sangkat",
    "commune_kh": "សង្កាត់តាខ្មៅ",
    "village": "Ta Khmao",
    "village_kh": "តាខ្មៅ",
    "market": "Svay Rolum Market",
    "market_kh": "ផ្សារស្វាយរលំ",
    "google_maps_url": "https://www.google.com/maps?q=11.455651,104.990203"
  },
  {
    "id": 91,
    "branch_id": "TAK03",
    "latitude": 11.162248,
    "longitude": 104.958285,
    "province": "Takeo",
    "province_kh": "តាកែវ",
    "district": "Prey Kabbas",
    "district_kh": "ព្រៃកប្បាស",
    "commune": "Prey Lvea",
    "commune_kh": "ព្រៃល្វា",
    "village": "Prey Lvea Lech",
    "village_kh": "ព្រៃល្វាលិច",
    "market": "Prey Lvea Market",
    "market_kh": "ផ្សារព្រៃល្វា",
    "google_maps_url": "https://www.google.com/maps?q=11.162248,104.958285"
  },
  {
    "id": 92,
    "branch_id": "ODD01",
    "latitude": 14.175077,
    "longitude": 103.507135,
    "province": "Oddar Meanchey",
    "province_kh": "ឧត្ដរមានជ័យ",
    "district": "Samraong Municipality",
    "district_kh": "ក្រុងសំរោង",
    "commune": "Samraong Sangkat",
    "commune_kh": "សង្កាត់សំរោង",
    "village": "Samraong",
    "village_kh": "សំរោង",
    "market": "Somrong Market",
    "market_kh": "ផ្សារសំរោង",
    "google_maps_url": "https://www.google.com/maps?q=14.175077,103.507135"
  },
  {
    "id": 93,
    "branch_id": "CHA09",
    "latitude": 11.900965,
    "longitude": 105.42545,
    "province": "Kampong Cham",
    "province_kh": "កំពង់ចាម",
    "district": "Kaoh Soutin",
    "district_kh": "កោះសូទិន",
    "commune": "Kaoh Sotin",
    "commune_kh": "កោះសូទិន",
    "village": "",
    "village_kh": "",
    "market": "Chi Her",
    "market_kh": "ផ្សារចី ហេរ",
    "google_maps_url": "https://www.google.com/maps?q=11.900965,105.42545"
  },
  {
    "id": 94,
    "branch_id": "PNP04",
    "latitude": 11.556693,
    "longitude": 104.885771,
    "province": "Phnom Penh Capital",
    "province_kh": "រាជធានីភ្នំពេញ",
    "district": "Saensokh Khan",
    "district_kh": "ខណ្ឌសែនសុខ",
    "commune": "Ou Baek K'am Sangkat",
    "commune_kh": "សង្កាត់អូរបែកក្អម",
    "village": "Ou Baek K'am",
    "village_kh": "អូរបែកក្អម",
    "market": "2002 Market",
    "market_kh": "ផ្សារ២០០២",
    "google_maps_url": "https://www.google.com/maps?q=11.556693,104.885771"
  },
  {
    "id": 95,
    "branch_id": "KAM02",
    "latitude": 10.540993,
    "longitude": 104.319894,
    "province": "Kep",
    "province_kh": "កែប",
    "district": "",
    "district_kh": "",
    "commune": "",
    "commune_kh": "",
    "village": "",
    "village_kh": "",
    "market": "Donnakchongeir Market",
    "market_kh": "ផ្សារដូននាកចូងីរ",
    "google_maps_url": "https://www.google.com/maps?q=10.540993,104.319894"
  },
  {
    "id": 96,
    "branch_id": "BAN02",
    "latitude": 13.659102,
    "longitude": 102.553944,
    "province": "Banteay Meanchey",
    "province_kh": "បន្ទាយមានជ័យ",
    "district": "Paoy Paet Municipality",
    "district_kh": "ក្រុងប៉ោយប៉ែត",
    "commune": "Paoy Paet Sangkat",
    "commune_kh": "សង្កាត់ប៉ោយប៉ែត",
    "village": "Poay Pet",
    "village_kh": "ប៉ោយប៉ែត",
    "market": "Samakum Kbalspen 24 Market",
    "market_kh": "ផ្សារសមាគម កបាលសពេន 24",
    "google_maps_url": "https://www.google.com/maps?q=13.659102,102.553944"
  },
  {
    "id": 97,
    "branch_id": "BAT10",
    "latitude": 12.869661,
    "longitude": 102.58322,
    "province": "Pailin",
    "province_kh": "ប៉ៃលិន",
    "district": "Pailin Municipality",
    "district_kh": "ក្រុងប៉ៃលិន",
    "commune": "Pailin Sangkat",
    "commune_kh": "សង្កាត់ប៉ៃលិន",
    "village": "",
    "village_kh": "",
    "market": "Ouchra Market",
    "market_kh": "ផ្សារអូរជ្រា",
    "google_maps_url": "https://www.google.com/maps?q=12.869661,102.58322"
  },
  {
    "id": 98,
    "branch_id": "PRE",
    "latitude": 11.216165,
    "longitude": 105.347584,
    "province": "Prey Veng",
    "province_kh": "ព្រៃវែង",
    "district": "Preah Sdach",
    "district_kh": "ព្រះស្ដេច",
    "commune": "Kampong Soeng",
    "commune_kh": "កំពង់សឹង",
    "village": "",
    "village_kh": "",
    "market": "Peukanseong Kampong",
    "market_kh": "ផ្សារពេុកានសេូង កំពង់",
    "google_maps_url": "https://www.google.com/maps?q=11.216165,105.347584"
  },
  {
    "id": 99,
    "branch_id": "PRE",
    "latitude": 11.845286,
    "longitude": 105.373005,
    "province": "Prey Veng",
    "province_kh": "ព្រៃវែង",
    "district": "Sithor Kandal",
    "district_kh": "ស៊ីធរកណ្ដាល",
    "commune": "Prey Tueng",
    "commune_kh": "ព្រៃទឹង",
    "village": "Prey Tueng",
    "village_kh": "ព្រៃទឹង",
    "market": "Preksandeak",
    "market_kh": "ផ្សារព្រេកសានដេាក",
    "google_maps_url": "https://www.google.com/maps?q=11.845286,105.373005"
  },
  {
    "id": 100,
    "branch_id": "BAT04",
    "latitude": 13.271177,
    "longitude": 103.054454,
    "province": "Battambang",
    "province_kh": "បាត់ដំបង",
    "district": "Thma Koul",
    "district_kh": "ថ្មគោល",
    "commune": "",
    "commune_kh": "",
    "village": "",
    "village_kh": "",
    "market": "Kok Khmum Market",
    "market_kh": "ផ្សារកុក ខមុម",
    "google_maps_url": "https://www.google.com/maps?q=13.271177,103.054454"
  },
  {
    "id": 101,
    "branch_id": "STU03",
    "latitude": 14.117864,
    "longitude": 106.388964,
    "province": "Stung Treng",
    "province_kh": "ស្ទឹងត្រែង",
    "district": "Siem Pang",
    "district_kh": "សៀមប៉ាង",
    "commune": "",
    "commune_kh": "",
    "village": "",
    "village_kh": "",
    "market": "Reatrey Thida Sour Siem Pang Market",
    "market_kh": "ផ្សាររេាត្រេយ ថីដា សអូរ សីេម ពាង",
    "google_maps_url": "https://www.google.com/maps?q=14.117864,106.388964"
  },
  {
    "id": 102,
    "branch_id": "PNP08",
    "latitude": 11.511958,
    "longitude": 104.881482,
    "province": "Phnom Penh Capital",
    "province_kh": "រាជធានីភ្នំពេញ",
    "district": "Dangkao Khan",
    "district_kh": "ខណ្ឌដង្កោ",
    "commune": "Dangkao Sangkat",
    "commune_kh": "សង្កាត់ដង្កោ",
    "village": "Khva",
    "village_kh": "ខ្វា",
    "market": "Piphub Tmey Chomkadong1",
    "market_kh": "ផ្សារពិភពថ្មី ចំការដូង១",
    "google_maps_url": "https://www.google.com/maps?q=11.511958,104.881482"
  },
  {
    "id": 103,
    "branch_id": "KAM03",
    "latitude": 10.811567,
    "longitude": 104.655637,
    "province": "Kampot",
    "province_kh": "កំពត",
    "district": "Angkor Chey",
    "district_kh": "អង្គរជ័យ",
    "commune": "Ankor Chey",
    "commune_kh": "អង្គរជ័យ",
    "village": "Angkor Chey Leu",
    "village_kh": "អង្គរជ័យលើ",
    "market": "Ang Phnomtouch Market",
    "market_kh": "ផ្សារាង ភ្នំតូច",
    "google_maps_url": "https://www.google.com/maps?q=10.811567,104.655637"
  },
  {
    "id": 104,
    "branch_id": "PNP01",
    "latitude": 11.569529,
    "longitude": 104.928196,
    "province": "Phnom Penh Capital",
    "province_kh": "រាជធានីភ្នំពេញ",
    "district": "Doun Penh Khan",
    "district_kh": "ខណ្ឌដូនពេញ",
    "commune": "Phsar Kandal Ti Muoy Sangkat",
    "commune_kh": "សង្កាត់ផ្សារកណ្ដាលទី១",
    "village": "",
    "village_kh": "",
    "market": "Kandal Market",
    "market_kh": "ផ្សារកណ្ដាល",
    "google_maps_url": "https://www.google.com/maps?q=11.569529,104.928196"
  },
  {
    "id": 105,
    "branch_id": "PNP05",
    "latitude": 11.532805,
    "longitude": 104.818125,
    "province": "Phnom Penh Capital",
    "province_kh": "រាជធានីភ្នំពេញ",
    "district": "Pur SenChey Khan",
    "district_kh": "ខណ្ឌពោធិ៍សែនជ័យ",
    "commune": "Chaom Chau 3 Sangkat",
    "commune_kh": "សង្កាត់ចោមចៅទី៣",
    "village": "Prey Pring Khang Tboung 2",
    "village_kh": "ព្រៃព្រីងខាងត្បូង២",
    "market": "Chom Po Von Market",
    "market_kh": "ផ្សារចោមពៅវ័ន",
    "google_maps_url": "https://www.google.com/maps?q=11.532805,104.818125"
  },
  {
    "id": 106,
    "branch_id": "CHA04",
    "latitude": 11.863431,
    "longitude": 105.735266,
    "province": "Tboung Khmum",
    "province_kh": "ត្បូងឃ្មុំ",
    "district": "Tboung Khmum",
    "district_kh": "ត្បូងឃ្មុំ",
    "commune": "Sralab",
    "commune_kh": "ស្រឡប់",
    "village": "Sralab",
    "village_kh": "ស្រឡប់",
    "market": "Khar Market",
    "market_kh": "ផ្សារខារ",
    "google_maps_url": "https://www.google.com/maps?q=11.863431,105.735266"
  },
  {
    "id": 107,
    "branch_id": "PNP05",
    "latitude": 11.519024,
    "longitude": 104.860663,
    "province": "Phnom Penh Capital",
    "province_kh": "រាជធានីភ្នំពេញ",
    "district": "Pur SenChey Khan",
    "district_kh": "ខណ្ឌពោធិ៍សែនជ័យ",
    "commune": "",
    "commune_kh": "",
    "village": "",
    "village_kh": "",
    "market": "Pholpongro Market",
    "market_kh": "ផ្សារផូលពូងរូ",
    "google_maps_url": "https://www.google.com/maps?q=11.519024,104.860663"
  },
  {
    "id": 108,
    "branch_id": "PNP05",
    "latitude": 11.52463,
    "longitude": 104.826938,
    "province": "Phnom Penh Capital",
    "province_kh": "រាជធានីភ្នំពេញ",
    "district": "Pur SenChey Khan",
    "district_kh": "ខណ្ឌពោធិ៍សែនជ័យ",
    "commune": "Chaom Chau 3 Sangkat",
    "commune_kh": "សង្កាត់ចោមចៅទី៣",
    "village": "Prey Pring Khang Tboung 2",
    "village_kh": "ព្រៃព្រីងខាងត្បូង២",
    "market": "Lorn City Chom Chao Market",
    "market_kh": "ផ្សារលូរន កីតយ ចោមចៅ",
    "google_maps_url": "https://www.google.com/maps?q=11.52463,104.826938"
  },
  {
    "id": 109,
    "branch_id": "BAN02",
    "latitude": 13.65706,
    "longitude": 102.555661,
    "province": "Banteay Meanchey",
    "province_kh": "បន្ទាយមានជ័យ",
    "district": "Paoy Paet Municipality",
    "district_kh": "ក្រុងប៉ោយប៉ែត",
    "commune": "Paoy Paet Sangkat",
    "commune_kh": "សង្កាត់ប៉ោយប៉ែត",
    "village": "Poay Pet",
    "village_kh": "ប៉ោយប៉ែត",
    "market": "Ra Market",
    "market_kh": "ផ្សាររា",
    "google_maps_url": "https://www.google.com/maps?q=13.65706,102.555661"
  },
  {
    "id": 110,
    "branch_id": "SPE03",
    "latitude": 11.339093,
    "longitude": 104.639515,
    "province": "Kampong Speu",
    "province_kh": "កំពង់ស្ពឺ",
    "district": "Kong Pisei",
    "district_kh": "គងពិសី",
    "commune": "",
    "commune_kh": "",
    "village": "",
    "village_kh": "",
    "market": "Nha",
    "market_kh": "ផ្សារញា",
    "google_maps_url": "https://www.google.com/maps?q=11.339093,104.639515"
  },
  {
    "id": 111,
    "branch_id": "CHA05",
    "latitude": 11.80194,
    "longitude": 106.118803,
    "province": "Tboung Khmum",
    "province_kh": "ត្បូងឃ្មុំ",
    "district": "Memot",
    "district_kh": "មេមត់",
    "commune": "Memot",
    "commune_kh": "មេមត់",
    "village": "Memot Phsar",
    "village_kh": "មេមត់ផ្សារ",
    "market": "Samrong Market",
    "market_kh": "ផ្សារសំរោង",
    "google_maps_url": "https://www.google.com/maps?q=11.80194,106.118803"
  },
  {
    "id": 112,
    "branch_id": "PNP08",
    "latitude": 11.538119,
    "longitude": 104.879309,
    "province": "Phnom Penh Capital",
    "province_kh": "រាជធានីភ្នំពេញ",
    "district": "Mean Chey Khan",
    "district_kh": "ខណ្ឌមានជ័យ",
    "commune": "Stueng Mean chey 3 Sangkat",
    "commune_kh": "សង្កាត់ស្ទឹងមានជ័យទី៣",
    "village": "",
    "village_kh": "",
    "market": "Sen Metrey Market",
    "market_kh": "ផ្សារសែនមេត្រី",
    "google_maps_url": "https://www.google.com/maps?q=11.538119,104.879309"
  },
  {
    "id": 113,
    "branch_id": "KAN",
    "latitude": 11.45521,
    "longitude": 105.001184,
    "province": "Kandal",
    "province_kh": "កណ្ដាល",
    "district": "Ta Khmau Municipality",
    "district_kh": "ក្រុងតាខ្មៅ",
    "commune": "Ta Khmao Sangkat",
    "commune_kh": "សង្កាត់តាខ្មៅ",
    "village": "Ta Khmao",
    "village_kh": "តាខ្មៅ",
    "market": "Winner Factory Market",
    "market_kh": "ផ្សារវីននេរ Factory",
    "google_maps_url": "https://www.google.com/maps?q=11.45521,105.001184"
  },
  {
    "id": 114,
    "branch_id": "PNP08",
    "latitude": 11.538106,
    "longitude": 104.879352,
    "province": "Phnom Penh Capital",
    "province_kh": "រាជធានីភ្នំពេញ",
    "district": "Mean Chey Khan",
    "district_kh": "ខណ្ឌមានជ័យ",
    "commune": "Stueng Mean chey 3 Sangkat",
    "commune_kh": "សង្កាត់ស្ទឹងមានជ័យទី៣",
    "village": "",
    "village_kh": "",
    "market": "Sen Metrey Market",
    "market_kh": "ផ្សារសែនមេត្រី",
    "google_maps_url": "https://www.google.com/maps?q=11.538106,104.879352"
  },
  {
    "id": 115,
    "branch_id": "SPE01",
    "latitude": 11.49301,
    "longitude": 104.658664,
    "province": "Kampong Speu",
    "province_kh": "កំពង់ស្ពឺ",
    "district": "Samraong Tong",
    "district_kh": "សំរោងទង",
    "commune": "Samrong Tong",
    "commune_kh": "សំរោងទង",
    "village": "Samrong Tong Leu",
    "village_kh": "សំរោងទងលើ",
    "market": "Samaki Market",
    "market_kh": "ផ្សារសាមគ្គី",
    "google_maps_url": "https://www.google.com/maps?q=11.49301,104.658664"
  },
  {
    "id": 116,
    "branch_id": "BAT01",
    "latitude": 13.095057,
    "longitude": 103.191703,
    "province": "Battambang",
    "province_kh": "បាត់ដំបង",
    "district": "Battambang Municipality",
    "district_kh": "ក្រុងបាត់ដំបង",
    "commune": "",
    "commune_kh": "",
    "village": "",
    "village_kh": "",
    "market": "Rong Lkorn Market",
    "market_kh": "ផ្សាររូង លកូរន",
    "google_maps_url": "https://www.google.com/maps?q=13.095057,103.191703"
  },
  {
    "id": 117,
    "branch_id": "ODD02",
    "latitude": 14.082096,
    "longitude": 104.095157,
    "province": "Oddar Meanchey",
    "province_kh": "ឧត្ដរមានជ័យ",
    "district": "Anlong Veaeng",
    "district_kh": "អន្លង់វែង",
    "commune": "Anlong Veaeng",
    "commune_kh": "អន្លង់វែង",
    "village": "",
    "village_kh": "",
    "market": "Andoung 3  Market",
    "market_kh": "ផ្សារានដអូង 3",
    "google_maps_url": "https://www.google.com/maps?q=14.082096,104.095157"
  },
  {
    "id": 118,
    "branch_id": "BAT02",
    "latitude": 13.030088,
    "longitude": 103.101665,
    "province": "Battambang",
    "province_kh": "បាត់ដំបង",
    "district": "Banan",
    "district_kh": "បាណន់",
    "commune": "Phnum Sampov",
    "commune_kh": "ភ្នំសំពៅ",
    "village": "Phnum Sampov Lech",
    "village_kh": "ភ្នំសំពៅលិច",
    "market": "Phnomsampov",
    "market_kh": "ផ្សារភ្នំសំពៅ",
    "google_maps_url": "https://www.google.com/maps?q=13.030088,103.101665"
  },
  {
    "id": 119,
    "branch_id": "KAN",
    "latitude": 11.488603,
    "longitude": 104.941958,
    "province": "Kandal",
    "province_kh": "កណ្ដាល",
    "district": "Ta Khmau Municipality",
    "district_kh": "ក្រុងតាខ្មៅ",
    "commune": "Ta Khmao Sangkat",
    "commune_kh": "សង្កាត់តាខ្មៅ",
    "village": "Ta Khmao",
    "village_kh": "តាខ្មៅ",
    "market": "Takhmao New Market",
    "market_kh": "ផ្សារតាខ្មៅថ្មី",
    "google_maps_url": "https://www.google.com/maps?q=11.488603,104.941958"
  },
  {
    "id": 120,
    "branch_id": "SPE03",
    "latitude": 11.29527,
    "longitude": 104.626352,
    "province": "Kampong Speu",
    "province_kh": "កំពង់ស្ពឺ",
    "district": "Kong Pisei",
    "district_kh": "គងពិសី",
    "commune": "",
    "commune_kh": "",
    "village": "",
    "village_kh": "",
    "market": "Srong Market",
    "market_kh": "ផ្សារស្រូង",
    "google_maps_url": "https://www.google.com/maps?q=11.29527,104.626352"
  },
  {
    "id": 121,
    "branch_id": "PNP06",
    "latitude": 11.590811,
    "longitude": 104.907432,
    "province": "Phnom Penh Capital",
    "province_kh": "រាជធានីភ្នំពេញ",
    "district": "Russey Keo Khan",
    "district_kh": "ខណ្ឌឫស្សីកែវ",
    "commune": "Tuol Sangkae 1 Sangkat",
    "commune_kh": "សង្កាត់ទួលសង្កែទី១",
    "village": "Toul sangke",
    "village_kh": "ទួលសង្កែ",
    "market": "Sam Han Market",
    "market_kh": "ផ្សារសាម ហាន",
    "google_maps_url": "https://www.google.com/maps?q=11.590811,104.907432"
  },
  {
    "id": 122,
    "branch_id": "PRE",
    "latitude": 11.616944,
    "longitude": 105.687408,
    "province": "Prey Veng",
    "province_kh": "ព្រៃវែង",
    "district": "Kamchay Mear",
    "district_kh": "កំចាយមារ",
    "commune": "",
    "commune_kh": "",
    "village": "",
    "village_kh": "",
    "market": "Kamchay Mear Market",
    "market_kh": "ផ្សារកាមចាយ មេារ",
    "google_maps_url": "https://www.google.com/maps?q=11.616944,105.687408"
  },
  {
    "id": 123,
    "branch_id": "SPE01",
    "latitude": 11.344461,
    "longitude": 104.323328,
    "province": "Kampong Speu",
    "province_kh": "កំពង់ស្ពឺ",
    "district": "Phnum Sruoch",
    "district_kh": "ភ្នំស្រួច",
    "commune": "Chambak",
    "commune_kh": "ចំបក់",
    "village": "",
    "village_kh": "",
    "market": "Talat Market",
    "market_kh": "ផ្សារតាលាត",
    "google_maps_url": "https://www.google.com/maps?q=11.344461,104.323328"
  },
  {
    "id": 124,
    "branch_id": "TAK01",
    "latitude": 10.980898,
    "longitude": 104.777986,
    "province": "Takeo",
    "province_kh": "តាកែវ",
    "district": "Doun Kaev Municipality",
    "district_kh": "ក្រុងដូនកែវ",
    "commune": "",
    "commune_kh": "",
    "village": "",
    "village_kh": "",
    "market": "Takao Market",
    "market_kh": "ផ្សារតាកែវ",
    "google_maps_url": "https://www.google.com/maps?q=10.980898,104.777986"
  },
  {
    "id": 125,
    "branch_id": "PNP06",
    "latitude": 11.591152,
    "longitude": 104.89793,
    "province": "Phnom Penh Capital",
    "province_kh": "រាជធានីភ្នំពេញ",
    "district": "Russey Keo Khan",
    "district_kh": "ខណ្ឌឫស្សីកែវ",
    "commune": "Tuol Sangkae 2 Sangkat",
    "commune_kh": "សង្កាត់ទួលសង្កែទី២",
    "village": "",
    "village_kh": "",
    "market": "Tom Noup",
    "market_kh": "ផ្សារទំនប់",
    "google_maps_url": "https://www.google.com/maps?q=11.591152,104.89793"
  },
  {
    "id": 126,
    "branch_id": "KAM03",
    "latitude": 10.656226,
    "longitude": 104.636838,
    "province": "Kampot",
    "province_kh": "កំពត",
    "district": "Banteay Meas",
    "district_kh": "បន្ទាយមាស",
    "commune": "Banteay Meas Khang lech",
    "commune_kh": "បន្ទាយមាសខាងលិច",
    "village": "Banteay Meas",
    "village_kh": "បន្ទាយមាស",
    "market": "Kansom Ak Market",
    "market_kh": "ផ្សារកានសូម ាក",
    "google_maps_url": "https://www.google.com/maps?q=10.656226,104.636838"
  },
  {
    "id": 127,
    "branch_id": "STU03",
    "latitude": 14.112644,
    "longitude": 106.374699,
    "province": "Stung Treng",
    "province_kh": "ស្ទឹងត្រែង",
    "district": "Siem Pang",
    "district_kh": "សៀមប៉ាង",
    "commune": "",
    "commune_kh": "",
    "village": "",
    "village_kh": "",
    "market": "Thom Thmey Siem Pang Market",
    "market_kh": "ផ្សារធំថ្មី សីេម ពាង",
    "google_maps_url": "https://www.google.com/maps?q=14.112644,106.374699"
  },
  {
    "id": 128,
    "branch_id": "BAN02",
    "latitude": 13.468883,
    "longitude": 103.012507,
    "province": "Banteay Meanchey",
    "province_kh": "បន្ទាយមានជ័យ",
    "district": "Mongkol Borei",
    "district_kh": "មង្គលបូរី",
    "commune": "Banteay Neang",
    "commune_kh": "បន្ទាយនាង",
    "village": "Banteay Neang",
    "village_kh": "បន្ទាយនាង",
    "market": "Ou Snguot Chas",
    "market_kh": "ផ្សារអូរស្ងួតចាស់",
    "google_maps_url": "https://www.google.com/maps?q=13.468883,103.012507"
  },
  {
    "id": 129,
    "branch_id": "PUR01",
    "latitude": 12.538673,
    "longitude": 103.920547,
    "province": "Pursat",
    "province_kh": "ពោធិ៍សាត់",
    "district": "Pursat Municipality",
    "district_kh": "ក្រុងពោធិ៍សាត់",
    "commune": "",
    "commune_kh": "",
    "village": "",
    "village_kh": "",
    "market": "Phar Tom Tmey Pursat",
    "market_kh": "ផ្សារផារ តូម ថ្មី ពោធិ៍សាត់",
    "google_maps_url": "https://www.google.com/maps?q=12.538673,103.920547"
  },
  {
    "id": 130,
    "branch_id": "SVA03",
    "latitude": 11.310054,
    "longitude": 105.822382,
    "province": "Svay Rieng",
    "province_kh": "ស្វាយរៀង",
    "district": "Romeas Haek",
    "district_kh": "រមាសហែក",
    "commune": "Angk Prasrae",
    "commune_kh": "អង្គប្រស្រែ",
    "village": "Angk Prasrae",
    "village_kh": "អង្គប្រស្រែ",
    "market": "Somroung Market",
    "market_kh": "ផ្សារសំរោង",
    "google_maps_url": "https://www.google.com/maps?q=11.310054,105.822382"
  },
  {
    "id": 131,
    "branch_id": "KAN",
    "latitude": 11.848463,
    "longitude": 104.994598,
    "province": "Kandal",
    "province_kh": "កណ្ដាល",
    "district": "Mukh Kampul",
    "district_kh": "មុខកំពូល",
    "commune": "Roka Kong Ti Pir",
    "commune_kh": "រកាកោង ទី ២",
    "village": "",
    "village_kh": "",
    "market": "Roka Kaong",
    "market_kh": "ផ្សាររូកា កៅង",
    "google_maps_url": "https://www.google.com/maps?q=11.848463,104.994598"
  },
  {
    "id": 132,
    "branch_id": "PNP08",
    "latitude": 11.504952,
    "longitude": 104.884225,
    "province": "Phnom Penh Capital",
    "province_kh": "រាជធានីភ្នំពេញ",
    "district": "Dangkao Khan",
    "district_kh": "ខណ្ឌដង្កោ",
    "commune": "Dangkao Sangkat",
    "commune_kh": "សង្កាត់ដង្កោ",
    "village": "Khva",
    "village_kh": "ខ្វា",
    "market": "Piphub Tmey Chomkadong2",
    "market_kh": "ផ្សារពិភពថ្មី ចំការដូង២",
    "google_maps_url": "https://www.google.com/maps?q=11.504952,104.884225"
  },
  {
    "id": 133,
    "branch_id": "PNP07",
    "latitude": 11.553367,
    "longitude": 104.91161,
    "province": "Phnom Penh Capital",
    "province_kh": "រាជធានីភ្នំពេញ",
    "district": "Doun Penh Khan",
    "district_kh": "ខណ្ឌដូនពេញ",
    "commune": "Boeng Reang Sangkat",
    "commune_kh": "សង្កាត់បឹងរាំង",
    "village": "",
    "village_kh": "",
    "market": "Olympic Market",
    "market_kh": "ផ្សារអូឡាំពិក",
    "google_maps_url": "https://www.google.com/maps?q=11.553367,104.91161"
  },
  {
    "id": 134,
    "branch_id": "PUR01",
    "latitude": 12.53212,
    "longitude": 103.911695,
    "province": "Pursat",
    "province_kh": "ពោធិ៍សាត់",
    "district": "Pursat Municipality",
    "district_kh": "ក្រុងពោធិ៍សាត់",
    "commune": "",
    "commune_kh": "",
    "village": "",
    "village_kh": "",
    "market": "Pou Puy Market",
    "market_kh": "ផ្សារពោធិ៍ពុយ",
    "google_maps_url": "https://www.google.com/maps?q=12.53212,103.911695"
  },
  {
    "id": 135,
    "branch_id": "PRH01",
    "latitude": 13.818551,
    "longitude": 104.808616,
    "province": "Preah Vihear",
    "province_kh": "ព្រះវិហារ",
    "district": "Kuleaen",
    "district_kh": "គូលែន",
    "commune": "Kuleaen Tboung",
    "commune_kh": "គូលែនត្បូង",
    "village": "Kuleaen Tboung",
    "village_kh": "គូលែនត្បូង",
    "market": "Thnal Bombek Market",
    "market_kh": "ផ្សារថ្នល់បំបែក",
    "google_maps_url": "https://www.google.com/maps?q=13.818551,104.808616"
  },
  {
    "id": 136,
    "branch_id": "STU02",
    "latitude": 13.387815,
    "longitude": 106.079282,
    "province": "Stung Treng",
    "province_kh": "ស្ទឹងត្រែង",
    "district": "Siem Bouk",
    "district_kh": "សៀមបូក",
    "commune": "Siem Bouk",
    "commune_kh": "សៀមបូក",
    "village": "Siem Bouk",
    "village_kh": "សៀមបូក",
    "market": "Siem Bouk",
    "market_kh": "ផ្សារសីេម បអូក",
    "google_maps_url": "https://www.google.com/maps?q=13.387815,106.079282"
  },
  {
    "id": 137,
    "branch_id": "PUR03",
    "latitude": 12.634648,
    "longitude": 103.725567,
    "province": "Pursat",
    "province_kh": "ពោធិ៍សាត់",
    "district": "Bakan",
    "district_kh": "បាកាន",
    "commune": "",
    "commune_kh": "",
    "village": "",
    "village_kh": "",
    "market": "Boeng Khna Market",
    "market_kh": "ផ្សារបឹង ខនា",
    "google_maps_url": "https://www.google.com/maps?q=12.634648,103.725567"
  },
  {
    "id": 138,
    "branch_id": "KAN",
    "latitude": 11.454636,
    "longitude": 105.031848,
    "province": "Kandal",
    "province_kh": "កណ្ដាល",
    "district": "Ta Khmau Municipality",
    "district_kh": "ក្រុងតាខ្មៅ",
    "commune": "Ta Khmao Sangkat",
    "commune_kh": "សង្កាត់តាខ្មៅ",
    "village": "Ta Khmao",
    "village_kh": "តាខ្មៅ",
    "market": "Thnol Chin Market",
    "market_kh": "ផ្សារថ្នល់ចិន",
    "google_maps_url": "https://www.google.com/maps?q=11.454636,105.031848"
  },
  {
    "id": 139,
    "branch_id": "PNP02",
    "latitude": 11.567715,
    "longitude": 104.900793,
    "province": "Phnom Penh Capital",
    "province_kh": "រាជធានីភ្នំពេញ",
    "district": "Tuol Kouk Khan",
    "district_kh": "ខណ្ឌទួលគោក",
    "commune": "Phsar Depou Ti Muoy Sangkat",
    "commune_kh": "សង្កាត់ផ្សារដេប៉ូទី ១",
    "village": "",
    "village_kh": "",
    "market": "Samaki Market",
    "market_kh": "ផ្សារសាមគ្គី",
    "google_maps_url": "https://www.google.com/maps?q=11.567715,104.900793"
  },
  {
    "id": 140,
    "branch_id": "PUR03",
    "latitude": 12.599636,
    "longitude": 103.791328,
    "province": "Pursat",
    "province_kh": "ពោធិ៍សាត់",
    "district": "Bakan",
    "district_kh": "បាកាន",
    "commune": "",
    "commune_kh": "",
    "village": "",
    "village_kh": "",
    "market": "Trapeang Chorng",
    "market_kh": "ផ្សារត្រពាំងច្រុង",
    "google_maps_url": "https://www.google.com/maps?q=12.599636,103.791328"
  },
  {
    "id": 141,
    "branch_id": "PNP01",
    "latitude": 11.573338,
    "longitude": 104.926882,
    "province": "Phnom Penh Capital",
    "province_kh": "រាជធានីភ្នំពេញ",
    "district": "Doun Penh Khan",
    "district_kh": "ខណ្ឌដូនពេញ",
    "commune": "Phsar Chas Sangkat",
    "commune_kh": "សង្កាត់ផ្សារចាស់",
    "village": "",
    "village_kh": "",
    "market": "Old Market",
    "market_kh": "ផ្សារចាស់",
    "google_maps_url": "https://www.google.com/maps?q=11.573338,104.926882"
  },
  {
    "id": 142,
    "branch_id": "PNP08",
    "latitude": 11.536692,
    "longitude": 104.887227,
    "province": "Phnom Penh Capital",
    "province_kh": "រាជធានីភ្នំពេញ",
    "district": "Mean Chey Khan",
    "district_kh": "ខណ្ឌមានជ័យ",
    "commune": "Stueng Mean chey 1 Sangkat",
    "commune_kh": "សង្កាត់ស្ទឹងមានជ័យទី១",
    "village": "Mean Chey 2",
    "village_kh": "មានជ័យ២",
    "market": "New Stung Mean Chey Market",
    "market_kh": "ផ្សារស្ទឹងមានជ័យថ្មី",
    "google_maps_url": "https://www.google.com/maps?q=11.536692,104.887227"
  },
  {
    "id": 143,
    "branch_id": "BAN01",
    "latitude": 13.707129,
    "longitude": 102.612369,
    "province": "Banteay Meanchey",
    "province_kh": "បន្ទាយមានជ័យ",
    "district": "Paoy Paet Municipality",
    "district_kh": "ក្រុងប៉ោយប៉ែត",
    "commune": "Paoy Paet Sangkat",
    "commune_kh": "សង្កាត់ប៉ោយប៉ែត",
    "village": "Poay Pet",
    "village_kh": "ប៉ោយប៉ែត",
    "market": "Prey Kub Market",
    "market_kh": "ផ្សារព្រេយ កុប",
    "google_maps_url": "https://www.google.com/maps?q=13.707129,102.612369"
  },
  {
    "id": 144,
    "branch_id": "PNP04",
    "latitude": 11.590003,
    "longitude": 104.877508,
    "province": "Phnom Penh Capital",
    "province_kh": "រាជធានីភ្នំពេញ",
    "district": "Saensokh Khan",
    "district_kh": "ខណ្ឌសែនសុខ",
    "commune": "Phnom Penh Thmei Sangkat",
    "commune_kh": "សង្កាត់ភ្នំពេញថ្មី",
    "village": "Phnom Penh Thmei",
    "village_kh": "ភ្នំពេញថ្មី",
    "market": "Derm Ompil",
    "market_kh": "ផ្សារដើមអំពិល",
    "google_maps_url": "https://www.google.com/maps?q=11.590003,104.877508"
  },
  {
    "id": 145,
    "branch_id": "CHA04",
    "latitude": 11.876061,
    "longitude": 105.770676,
    "province": "Tboung Khmum",
    "province_kh": "ត្បូងឃ្មុំ",
    "district": "Tboung Khmum",
    "district_kh": "ត្បូងឃ្មុំ",
    "commune": "",
    "commune_kh": "",
    "village": "",
    "village_kh": "",
    "market": "Chamka Tmor Market",
    "market_kh": "ផ្សារចំការថ្ម",
    "google_maps_url": "https://www.google.com/maps?q=11.876061,105.770676"
  },
  {
    "id": 146,
    "branch_id": "PNP03",
    "latitude": 11.510607,
    "longitude": 104.932727,
    "province": "Phnom Penh Capital",
    "province_kh": "រាជធានីភ្នំពេញ",
    "district": "Mean Chey Khan",
    "district_kh": "ខណ្ឌមានជ័យ",
    "commune": "Chak Angrae Kraom Sangkat",
    "commune_kh": "សង្កាត់ចាក់អង្រែក្រោម",
    "village": "",
    "village_kh": "",
    "market": "Chak Angre",
    "market_kh": "ផ្សារចាក ាងរេ",
    "google_maps_url": "https://www.google.com/maps?q=11.510607,104.932727"
  },
  {
    "id": 147,
    "branch_id": "PNP02",
    "latitude": 11.558429,
    "longitude": 104.896526,
    "province": "Phnom Penh Capital",
    "province_kh": "រាជធានីភ្នំពេញ",
    "district": "Tuol Kouk Khan",
    "district_kh": "ខណ្ឌទួលគោក",
    "commune": "Tuek L'ak Ti Bei Sangkat",
    "commune_kh": "សង្កាត់ទឹកល្អក់ទី ៣",
    "village": "",
    "village_kh": "",
    "market": "Unai Market",
    "market_kh": "ផ្សារុនៃ",
    "google_maps_url": "https://www.google.com/maps?q=11.558429,104.896526"
  },
  {
    "id": 148,
    "branch_id": "PNP08",
    "latitude": 11.50872,
    "longitude": 104.8895,
    "province": "Phnom Penh Capital",
    "province_kh": "រាជធានីភ្នំពេញ",
    "district": "Dangkao Khan",
    "district_kh": "ខណ្ឌដង្កោ",
    "commune": "Dangkao Sangkat",
    "commune_kh": "សង្កាត់ដង្កោ",
    "village": "Khva",
    "village_kh": "ខ្វា",
    "market": "Chomkadong",
    "market_kh": "ផ្សារចំការដូង",
    "google_maps_url": "https://www.google.com/maps?q=11.50872,104.8895"
  },
  {
    "id": 149,
    "branch_id": "PUR01",
    "latitude": 12.422808,
    "longitude": 103.731159,
    "province": "Pursat",
    "province_kh": "ពោធិ៍សាត់",
    "district": "Pursat Municipality",
    "district_kh": "ក្រុងពោធិ៍សាត់",
    "commune": "",
    "commune_kh": "",
    "village": "",
    "village_kh": "",
    "market": "Bat Rom Duol Market",
    "market_kh": "ផ្សារបាត រូម ដុូល",
    "google_maps_url": "https://www.google.com/maps?q=12.422808,103.731159"
  },
  {
    "id": 150,
    "branch_id": "CHH03",
    "latitude": 12.438863,
    "longitude": 104.462238,
    "province": "Kampong Chhnang",
    "province_kh": "កំពង់ឆ្នាំង",
    "district": "Baribour",
    "district_kh": "បរិបូណ៌",
    "commune": "Trapeang Chan",
    "commune_kh": "ត្រពាំងចាន់",
    "village": "Trapeang Chan",
    "village_kh": "ត្រពាំងចាន់",
    "market": "Ponley Market",
    "market_kh": "ផ្សារពូនលេយ",
    "google_maps_url": "https://www.google.com/maps?q=12.438863,104.462238"
  },
  {
    "id": 151,
    "branch_id": "PRE",
    "latitude": 11.688642,
    "longitude": 105.552243,
    "province": "Prey Veng",
    "province_kh": "ព្រៃវែង",
    "district": "Kanhchriech",
    "district_kh": "កញ្ជ្រៀច",
    "commune": "Kanhchriech",
    "commune_kh": "កញ្ជ្រៀច",
    "village": "Kanhchriech",
    "village_kh": "កញ្ជ្រៀច",
    "market": "Brosre Mok Market",
    "market_kh": "ផ្សារប្រូស្រេ មូក",
    "google_maps_url": "https://www.google.com/maps?q=11.688642,105.552243"
  },
  {
    "id": 152,
    "branch_id": "ODD01",
    "latitude": 14.182734,
    "longitude": 103.516993,
    "province": "Oddar Meanchey",
    "province_kh": "ឧត្ដរមានជ័យ",
    "district": "Samraong Municipality",
    "district_kh": "ក្រុងសំរោង",
    "commune": "Samraong Sangkat",
    "commune_kh": "សង្កាត់សំរោង",
    "village": "Samraong",
    "village_kh": "សំរោង",
    "market": "Chuk Market",
    "market_kh": "ផ្សារឈូក",
    "google_maps_url": "https://www.google.com/maps?q=14.182734,103.516993"
  },
  {
    "id": 153,
    "branch_id": "KAN",
    "latitude": 11.484553,
    "longitude": 104.945068,
    "province": "Kandal",
    "province_kh": "កណ្ដាល",
    "district": "Ta Khmau Municipality",
    "district_kh": "ក្រុងតាខ្មៅ",
    "commune": "Ta Khmao Sangkat",
    "commune_kh": "សង្កាត់តាខ្មៅ",
    "village": "Ta Khmao",
    "village_kh": "តាខ្មៅ",
    "market": "Takhmao Market",
    "market_kh": "ផ្សារតាខ្មៅ",
    "google_maps_url": "https://www.google.com/maps?q=11.484553,104.945068"
  },
  {
    "id": 154,
    "branch_id": "PUR01",
    "latitude": 12.584495,
    "longitude": 103.956655,
    "province": "Pursat",
    "province_kh": "ពោធិ៍សាត់",
    "district": "Kandieng",
    "district_kh": "កណ្ដៀង",
    "commune": "Kandieng",
    "commune_kh": "កណ្ដៀង",
    "village": "Kandieng",
    "village_kh": "កណ្ដៀង",
    "market": "Kandieng Market",
    "market_kh": "ផ្សារកណ្ដៀង",
    "google_maps_url": "https://www.google.com/maps?q=12.584495,103.956655"
  },
  {
    "id": 155,
    "branch_id": "PUR02",
    "latitude": 12.532855,
    "longitude": 104.209704,
    "province": "Pursat",
    "province_kh": "ពោធិ៍សាត់",
    "district": "Krakor",
    "district_kh": "ក្រគរ",
    "commune": "",
    "commune_kh": "",
    "village": "",
    "village_kh": "",
    "market": "Samaki Krokou Market",
    "market_kh": "ផ្សារសាមគ្គី ក្រូកអូ",
    "google_maps_url": "https://www.google.com/maps?q=12.532855,104.209704"
  },
  {
    "id": 156,
    "branch_id": "CHA04",
    "latitude": 11.945416,
    "longitude": 105.544846,
    "province": "Tboung Khmum",
    "province_kh": "ត្បូងឃ្មុំ",
    "district": "Tboung Khmum",
    "district_kh": "ត្បូងឃ្មុំ",
    "commune": "",
    "commune_kh": "",
    "village": "",
    "village_kh": "",
    "market": "Srae Seam Market",
    "market_kh": "ផ្សារស្រែសៀម",
    "google_maps_url": "https://www.google.com/maps?q=11.945416,105.544846"
  },
  {
    "id": 157,
    "branch_id": "CHH01",
    "latitude": 11.983035,
    "longitude": 104.373627,
    "province": "Kampong Chhnang",
    "province_kh": "កំពង់ឆ្នាំង",
    "district": "Tuek Phos",
    "district_kh": "ទឹកផុស",
    "commune": "Tuol Khpos",
    "commune_kh": "ទួលខ្ពស់",
    "village": "",
    "village_kh": "",
    "market": "Tuek Phos Market",
    "market_kh": "ផ្សារទឹកផុស",
    "google_maps_url": "https://www.google.com/maps?q=11.983035,104.373627"
  },
  {
    "id": 158,
    "branch_id": "PNP04",
    "latitude": 11.571331,
    "longitude": 104.871231,
    "province": "Phnom Penh Capital",
    "province_kh": "រាជធានីភ្នំពេញ",
    "district": "Saensokh Khan",
    "district_kh": "ខណ្ឌសែនសុខ",
    "commune": "Phnom Penh Thmei Sangkat",
    "commune_kh": "សង្កាត់ភ្នំពេញថ្មី",
    "village": "Phnom Penh Thmei",
    "village_kh": "ភ្នំពេញថ្មី",
    "market": "Dey Huy Market",
    "market_kh": "ផ្សារដីហ៊ុយ",
    "google_maps_url": "https://www.google.com/maps?q=11.571331,104.871231"
  },
  {
    "id": 159,
    "branch_id": "PRE",
    "latitude": 11.09664,
    "longitude": 105.383939,
    "province": "Prey Veng",
    "province_kh": "ព្រៃវែង",
    "district": "Preah Sdach",
    "district_kh": "ព្រះស្ដេច",
    "commune": "Lvea",
    "commune_kh": "ល្វា",
    "village": "Lvea",
    "village_kh": "ល្វា",
    "market": "Tra Market",
    "market_kh": "ផ្សារត្រា",
    "google_maps_url": "https://www.google.com/maps?q=11.09664,105.383939"
  },
  {
    "id": 160,
    "branch_id": "BAN06",
    "latitude": 13.623986,
    "longitude": 103.18216,
    "province": "Banteay Meanchey",
    "province_kh": "បន្ទាយមានជ័យ",
    "district": "Preah Netr Preah",
    "district_kh": "ព្រះនេត្រព្រះ",
    "commune": "Rohal",
    "commune_kh": "រហាល",
    "village": "Rohal",
    "village_kh": "រហាល",
    "market": "Chakrey Market",
    "market_kh": "ផ្សារចាក្រេយ",
    "google_maps_url": "https://www.google.com/maps?q=13.623986,103.18216"
  },
  {
    "id": 161,
    "branch_id": "SVA04",
    "latitude": 11.416551,
    "longitude": 105.796471,
    "province": "Svay Rieng",
    "province_kh": "ស្វាយរៀង",
    "district": "Romeas Haek",
    "district_kh": "រមាសហែក",
    "commune": "Kampong Trach",
    "commune_kh": "កំពង់ត្រាច",
    "village": "Kampong Trach",
    "village_kh": "កំពង់ត្រាច",
    "market": "Kompongtrach Market",
    "market_kh": "ផ្សារកំពង់ត្រាច",
    "google_maps_url": "https://www.google.com/maps?q=11.416551,105.796471"
  },
  {
    "id": 162,
    "branch_id": "PNP02",
    "latitude": 11.563865,
    "longitude": 104.906982,
    "province": "Phnom Penh Capital",
    "province_kh": "រាជធានីភ្នំពេញ",
    "district": "Prampir Meakkakra Khan",
    "district_kh": "ខណ្ឌ៧មករា",
    "commune": "Veal Vong Sangkat",
    "commune_kh": "សង្កាត់វាលវង់",
    "village": "",
    "village_kh": "",
    "market": "Depo Market",
    "market_kh": "ផ្សារដេប៉ូ",
    "google_maps_url": "https://www.google.com/maps?q=11.563865,104.906982"
  },
  {
    "id": 163,
    "branch_id": "SVA01",
    "latitude": 11.082445,
    "longitude": 105.818545,
    "province": "Svay Rieng",
    "province_kh": "ស្វាយរៀង",
    "district": "Svay Rieng Municipality",
    "district_kh": "ក្រុងស្វាយរៀង",
    "commune": "Pou Ta Hao Sangkat",
    "commune_kh": "សង្កាត់ពោធិ៍តាហោ",
    "village": "Pou Ta Hao",
    "village_kh": "ពោធិតាហោ",
    "market": "Pou Ta Hao Market",
    "market_kh": "ផ្សារពោធិ៍តាហោ",
    "google_maps_url": "https://www.google.com/maps?q=11.082445,105.818545"
  },
  {
    "id": 164,
    "branch_id": "KOH03",
    "latitude": 11.121352,
    "longitude": 103.748155,
    "province": "Koh Kong",
    "province_kh": "កោះកុង",
    "district": "Srae Ambel",
    "district_kh": "ស្រែ អំបិល",
    "commune": "Srae Ambel",
    "commune_kh": "ស្រែអំបិល",
    "village": "Srae Ambel",
    "village_kh": "ស្រែអំបិល",
    "market": "Srae Ambel",
    "market_kh": "ផ្សារស្រែអំបិល",
    "google_maps_url": "https://www.google.com/maps?q=11.121352,103.748155"
  },
  {
    "id": 165,
    "branch_id": "PNP05",
    "latitude": 11.5817,
    "longitude": 104.788222,
    "province": "Phnom Penh Capital",
    "province_kh": "រាជធានីភ្នំពេញ",
    "district": "Pur SenChey Khan",
    "district_kh": "ខណ្ឌពោធិ៍សែនជ័យ",
    "commune": "",
    "commune_kh": "",
    "village": "",
    "village_kh": "",
    "market": "Trapheang Anh Chanh",
    "market_kh": "ផ្សារត្រាផេាង ាញ ចាញ",
    "google_maps_url": "https://www.google.com/maps?q=11.5817,104.788222"
  },
  {
    "id": 166,
    "branch_id": "PNP09",
    "latitude": 11.507655,
    "longitude": 104.768853,
    "province": "Phnom Penh Capital",
    "province_kh": "រាជធានីភ្នំពេញ",
    "district": "Doun Penh Khan",
    "district_kh": "ខណ្ឌដូនពេញ",
    "commune": "",
    "commune_kh": "",
    "village": "",
    "village_kh": "",
    "market": "Pipop Thmey 2 Market",
    "market_kh": "ផ្សារពិភពថ្មី 2",
    "google_maps_url": "https://www.google.com/maps?q=11.507655,104.768853"
  },
  {
    "id": 167,
    "branch_id": "PNP04",
    "latitude": 11.576032,
    "longitude": 104.879748,
    "province": "Phnom Penh Capital",
    "province_kh": "រាជធានីភ្នំពេញ",
    "district": "Saensokh Khan",
    "district_kh": "ខណ្ឌសែនសុខ",
    "commune": "Phnom Penh Thmei Sangkat",
    "commune_kh": "សង្កាត់ភ្នំពេញថ្មី",
    "village": "Phnom Penh Thmei",
    "village_kh": "ភ្នំពេញថ្មី",
    "market": "Kromoun Market Pnhom Penh Thmeii",
    "market_kh": "ផ្សារក្រូមអូន ពញូម ពេញ ថមីី",
    "google_maps_url": "https://www.google.com/maps?q=11.576032,104.879748"
  },
  {
    "id": 168,
    "branch_id": "KAN",
    "latitude": 11.435405,
    "longitude": 105.043211,
    "province": "Kandal",
    "province_kh": "កណ្ដាល",
    "district": "Ta Khmau Municipality",
    "district_kh": "ក្រុងតាខ្មៅ",
    "commune": "Ta Khmao Sangkat",
    "commune_kh": "សង្កាត់តាខ្មៅ",
    "village": "Ta Khmao",
    "village_kh": "តាខ្មៅ",
    "market": "Setbo Market",
    "market_kh": "ផ្សារសេតបូ",
    "google_maps_url": "https://www.google.com/maps?q=11.435405,105.043211"
  },
  {
    "id": 169,
    "branch_id": "PNP09",
    "latitude": 11.510965,
    "longitude": 104.748045,
    "province": "Kandal",
    "province_kh": "កណ្ដាល",
    "district": "Angk Snuol",
    "district_kh": "អង្គស្នួល",
    "commune": "",
    "commune_kh": "",
    "village": "",
    "village_kh": "",
    "market": "Biek Chan Market",
    "market_kh": "ផ្សារបែក ចាន",
    "google_maps_url": "https://www.google.com/maps?q=11.510965,104.748045"
  },
  {
    "id": 170,
    "branch_id": "PRE",
    "latitude": 11.689807,
    "longitude": 105.561842,
    "province": "Prey Veng",
    "province_kh": "ព្រៃវែង",
    "district": "Kanhchriech",
    "district_kh": "កញ្ជ្រៀច",
    "commune": "Kanhchriech",
    "commune_kh": "កញ្ជ្រៀច",
    "village": "Kanhchriech",
    "village_kh": "កញ្ជ្រៀច",
    "market": "Kanhchrech'S Market",
    "market_kh": "ផ្សារកាញចរេច'ស",
    "google_maps_url": "https://www.google.com/maps?q=11.689807,105.561842"
  },
  {
    "id": 171,
    "branch_id": "STU01",
    "latitude": 13.55101,
    "longitude": 105.952763,
    "province": "Stung Treng",
    "province_kh": "ស្ទឹងត្រែង",
    "district": "Thala Barivat",
    "district_kh": "ថាឡាបរិវ៉ាត់",
    "commune": "Thala Barivat",
    "commune_kh": "ថាឡាបរិវ៉ាត់",
    "village": "Ou Trael",
    "village_kh": "អូរត្រែល",
    "market": "Thala Borivath Market",
    "market_kh": "ផ្សារថាលា បូរីវាថ",
    "google_maps_url": "https://www.google.com/maps?q=13.55101,105.952763"
  },
  {
    "id": 172,
    "branch_id": "CHA04",
    "latitude": 11.927438,
    "longitude": 105.562983,
    "province": "Tboung Khmum",
    "province_kh": "ត្បូងឃ្មុំ",
    "district": "Tboung Khmum",
    "district_kh": "ត្បូងឃ្មុំ",
    "commune": "",
    "commune_kh": "",
    "village": "",
    "village_kh": "",
    "market": "Mran Teak Market",
    "market_kh": "ផ្សារមរាន តេាក",
    "google_maps_url": "https://www.google.com/maps?q=11.927438,105.562983"
  },
  {
    "id": 173,
    "branch_id": "Center1",
    "latitude": 10.616496,
    "longitude": 103.540201,
    "province": "Preah Sihanouk",
    "province_kh": "ព្រះសីហនុ",
    "district": "Preah Sihanouk Municipality",
    "district_kh": "ក្រុងព្រះសីហនុ",
    "commune": "",
    "commune_kh": "",
    "village": "",
    "village_kh": "",
    "market": "O2 Market",
    "market_kh": "ផ្សារO២",
    "google_maps_url": "https://www.google.com/maps?q=10.616496,103.540201"
  },
  {
    "id": 174,
    "branch_id": "PRE04",
    "latitude": 11.328173,
    "longitude": 105.509758,
    "province": "Prey Veng",
    "province_kh": "ព្រៃវែង",
    "district": "Me Sang",
    "district_kh": "មេសាង",
    "commune": "Prey Totueng",
    "commune_kh": "ព្រៃទទឹង",
    "village": "Prey Totueng",
    "village_kh": "ព្រៃទទឹង",
    "market": "Moi'S Original Market",
    "market_kh": "ផ្សារមូី'ស Original",
    "google_maps_url": "https://www.google.com/maps?q=11.328173,105.509758"
  },
  {
    "id": 175,
    "branch_id": "PNP06",
    "latitude": 11.588358,
    "longitude": 104.935666,
    "province": "Phnom Penh Capital",
    "province_kh": "រាជធានីភ្នំពេញ",
    "district": "Chraoy Chongvar Khan",
    "district_kh": "ខណ្ឌជ្រោយចង្វារ",
    "commune": "Chrouy Changvar Sangkat",
    "commune_kh": "សង្កាត់ជ្រោយចង្វារ",
    "village": "",
    "village_kh": "",
    "market": "Phsar Kassephal Chhroy Chongva",
    "market_kh": "ផ្សារ កាសសេផាល ជ្រោយចង្វារ",
    "google_maps_url": "https://www.google.com/maps?q=11.588358,104.935666"
  },
  {
    "id": 176,
    "branch_id": "SPE03",
    "latitude": 11.35175,
    "longitude": 104.645652,
    "province": "Kampong Speu",
    "province_kh": "កំពង់ស្ពឺ",
    "district": "Kong Pisei",
    "district_kh": "គងពិសី",
    "commune": "",
    "commune_kh": "",
    "village": "",
    "village_kh": "",
    "market": "Kor Krous",
    "market_kh": "ផ្សារកូរ ក្រអូស",
    "google_maps_url": "https://www.google.com/maps?q=11.35175,104.645652"
  },
  {
    "id": 177,
    "branch_id": "SIE02",
    "latitude": 13.336218,
    "longitude": 104.008114,
    "province": "Siemreap",
    "province_kh": "សៀមរាប",
    "district": "Prasat Bakong",
    "district_kh": "ប្រាសាទបាគង",
    "commune": "Bakong",
    "commune_kh": "បាគង",
    "village": "",
    "village_kh": "",
    "market": "Psar Ongrong",
    "market_kh": "ផ្សារ ូងរូង",
    "google_maps_url": "https://www.google.com/maps?q=13.336218,104.008114"
  },
  {
    "id": 178,
    "branch_id": "SPE01",
    "latitude": 11.521437,
    "longitude": 104.520979,
    "province": "Kampong Speu",
    "province_kh": "កំពង់ស្ពឺ",
    "district": "Samraong Tong",
    "district_kh": "សំរោងទង",
    "commune": "Samrong Tong",
    "commune_kh": "សំរោងទង",
    "village": "Samrong Tong Leu",
    "village_kh": "សំរោងទងលើ",
    "market": "Trapeang Kin Market",
    "market_kh": "ផ្សារត្រពាំងគិន",
    "google_maps_url": "https://www.google.com/maps?q=11.521437,104.520979"
  },
  {
    "id": 179,
    "branch_id": "PNP06",
    "latitude": 11.593397,
    "longitude": 104.906839,
    "province": "Phnom Penh Capital",
    "province_kh": "រាជធានីភ្នំពេញ",
    "district": "Russey Keo Khan",
    "district_kh": "ខណ្ឌឫស្សីកែវ",
    "commune": "Tuol Sangkae 1 Sangkat",
    "commune_kh": "សង្កាត់ទួលសង្កែទី១",
    "village": "Toul sangke",
    "village_kh": "ទួលសង្កែ",
    "market": "Russey Keo Thmei Market",
    "market_kh": "ផ្សារឫស្សីកែវ ថមី",
    "google_maps_url": "https://www.google.com/maps?q=11.593397,104.906839"
  },
  {
    "id": 180,
    "branch_id": "PRE",
    "latitude": 11.257917,
    "longitude": 105.40039,
    "province": "Prey Veng",
    "province_kh": "ព្រៃវែង",
    "district": "Ba Phnum",
    "district_kh": "បាភ្នំ",
    "commune": "Cheung Phnum",
    "commune_kh": "ជើងភ្នំ",
    "village": "",
    "village_kh": "",
    "market": "Bung Toek Market",
    "market_kh": "ផ្សារបឹង តូេក",
    "google_maps_url": "https://www.google.com/maps?q=11.257917,105.40039"
  },
  {
    "id": 181,
    "branch_id": "KAN",
    "latitude": 11.26616,
    "longitude": 105.033608,
    "province": "Kandal",
    "province_kh": "កណ្ដាល",
    "district": "S'ang",
    "district_kh": "ស្អាង",
    "commune": "Preaek Ambel",
    "commune_kh": "ព្រែកអំបិល",
    "village": "Preaek Ambil",
    "village_kh": "ព្រែកអំបិល",
    "market": "Prek Chun",
    "market_kh": "ផ្សារព្រេក ចុន",
    "google_maps_url": "https://www.google.com/maps?q=11.26616,105.033608"
  },
  {
    "id": 182,
    "branch_id": "BAN01",
    "latitude": 13.692424,
    "longitude": 102.582019,
    "province": "Banteay Meanchey",
    "province_kh": "បន្ទាយមានជ័យ",
    "district": "Paoy Paet Municipality",
    "district_kh": "ក្រុងប៉ោយប៉ែត",
    "commune": "Paoy Paet Sangkat",
    "commune_kh": "សង្កាត់ប៉ោយប៉ែត",
    "village": "Poay Pet",
    "village_kh": "ប៉ោយប៉ែត",
    "market": "Cheayden Market",
    "market_kh": "ផ្សារចេាយដេន",
    "google_maps_url": "https://www.google.com/maps?q=13.692424,102.582019"
  },
  {
    "id": 183,
    "branch_id": "PNP02",
    "latitude": 11.556663,
    "longitude": 104.892581,
    "province": "Phnom Penh Capital",
    "province_kh": "រាជធានីភ្នំពេញ",
    "district": "Tuol Kouk Khan",
    "district_kh": "ខណ្ឌទួលគោក",
    "commune": "Tuek L'ak Ti Bei Sangkat",
    "commune_kh": "សង្កាត់ទឹកល្អក់ទី ៣",
    "village": "",
    "village_kh": "",
    "market": "Chip Mong Market",
    "market_kh": "ផ្សារ Chip Mong",
    "google_maps_url": "https://www.google.com/maps?q=11.556663,104.892581"
  },
  {
    "id": 184,
    "branch_id": "KAN01",
    "latitude": 11.441714,
    "longitude": 104.89139,
    "province": "Phnom Penh Capital",
    "province_kh": "រាជធានីភ្នំពេញ",
    "district": "Dangkao Khan",
    "district_kh": "ខណ្ឌដង្កោ",
    "commune": "Preaek Kampues Sangkat",
    "commune_kh": "សង្កាត់ព្រែកកំពឹស",
    "village": "Preaek Kampues",
    "village_kh": "ព្រែកកំពឹស",
    "market": "Piphup Thmey Kour Srov Market",
    "market_kh": "ផ្សារពិភពថ្មី កអូរ ស្រូវ",
    "google_maps_url": "https://www.google.com/maps?q=11.441714,104.89139"
  },
  {
    "id": 185,
    "branch_id": "PNP05",
    "latitude": 11.563343,
    "longitude": 104.857089,
    "province": "Phnom Penh Capital",
    "province_kh": "រាជធានីភ្នំពេញ",
    "district": "Pur SenChey Khan",
    "district_kh": "ខណ្ឌពោធិ៍សែនជ័យ",
    "commune": "Kakab 1 Sangkat",
    "commune_kh": "សង្កាត់កាកាបទី១",
    "village": "Paprak Khang Cheung",
    "village_kh": "ប៉ប្រកខាងជើង",
    "market": "Porchentong Market",
    "market_kh": "ផ្សារពោធិ៍ចិនតុង",
    "google_maps_url": "https://www.google.com/maps?q=11.563343,104.857089"
  },
  {
    "id": 186,
    "branch_id": "PRE",
    "latitude": 11.648032,
    "longitude": 105.340436,
    "province": "Prey Veng",
    "province_kh": "ព្រៃវែង",
    "district": "Pea Reang",
    "district_kh": "ពារាំង",
    "commune": "Prey Pnov",
    "commune_kh": "ព្រៃព្នៅ",
    "village": "Prey Pnov",
    "village_kh": "ព្រៃព្នៅ",
    "market": "Prey Pnov Market",
    "market_kh": "ផ្សារព្រែកព្នៅ",
    "google_maps_url": "https://www.google.com/maps?q=11.648032,105.340436"
  },
  {
    "id": 187,
    "branch_id": "BAT10",
    "latitude": 12.946403,
    "longitude": 102.59296,
    "province": "Pailin",
    "province_kh": "ប៉ៃលិន",
    "district": "Sala Krau",
    "district_kh": "សាលាក្រៅ",
    "commune": "Sala Krau",
    "commune_kh": "សាលាក្រៅ",
    "village": "",
    "village_kh": "",
    "market": "Salakrao Market",
    "market_kh": "ផ្សារសាលាក្រៅ",
    "google_maps_url": "https://www.google.com/maps?q=12.946403,102.59296"
  },
  {
    "id": 188,
    "branch_id": "CHA05",
    "latitude": 11.828723,
    "longitude": 106.18168,
    "province": "Tboung Khmum",
    "province_kh": "ត្បូងឃ្មុំ",
    "district": "Memot",
    "district_kh": "មេមត់",
    "commune": "Memot",
    "commune_kh": "មេមត់",
    "village": "Memot Phsar",
    "village_kh": "មេមត់ផ្សារ",
    "market": "Memot Market",
    "market_kh": "ផ្សារមេមត់",
    "google_maps_url": "https://www.google.com/maps?q=11.828723,106.18168"
  },
  {
    "id": 189,
    "branch_id": "PNP08",
    "latitude": 11.526403,
    "longitude": 104.898471,
    "province": "Phnom Penh Capital",
    "province_kh": "រាជធានីភ្នំពេញ",
    "district": "Mean Chey Khan",
    "district_kh": "ខណ្ឌមានជ័យ",
    "commune": "Boeng Tumpun 1 Sangkat",
    "commune_kh": "សង្កាត់បឹងទំពុនទី១",
    "village": "",
    "village_kh": "",
    "market": "Polnhean Market",
    "market_kh": "ផ្សារពូលញេាន",
    "google_maps_url": "https://www.google.com/maps?q=11.526403,104.898471"
  },
  {
    "id": 190,
    "branch_id": "SPE03",
    "latitude": 11.279279,
    "longitude": 104.710281,
    "province": "Takeo",
    "province_kh": "តាកែវ",
    "district": "Bati",
    "district_kh": "បាទី",
    "commune": "Sour Phi",
    "commune_kh": "សូរភី",
    "village": "",
    "village_kh": "",
    "market": "Tramkna",
    "market_kh": "ផ្សារត្រាមកនា",
    "google_maps_url": "https://www.google.com/maps?q=11.279279,104.710281"
  },
  {
    "id": 191,
    "branch_id": "CHA02",
    "latitude": 12.18055,
    "longitude": 105.323205,
    "province": "Kampong Cham",
    "province_kh": "កំពង់ចាម",
    "district": "Chamkar Leu",
    "district_kh": "ចំការលើ",
    "commune": "Chamkar Andoung",
    "commune_kh": "ចំការអណ្ដូង",
    "village": "Chamkar Andoung",
    "village_kh": "ចំការអណ្ដូង",
    "market": "Boss Khnor Market",
    "market_kh": "ផ្សារបូសស ខនូរ",
    "google_maps_url": "https://www.google.com/maps?q=12.18055,105.323205"
  },
  {
    "id": 192,
    "branch_id": "CHA04",
    "latitude": 11.923374,
    "longitude": 105.574967,
    "province": "Tboung Khmum",
    "province_kh": "ត្បូងឃ្មុំ",
    "district": "Tboung Khmum",
    "district_kh": "ត្បូងឃ្មុំ",
    "commune": "",
    "commune_kh": "",
    "village": "",
    "village_kh": "",
    "market": "Thnalttung Market",
    "market_kh": "ផ្សារថនាលតតុង",
    "google_maps_url": "https://www.google.com/maps?q=11.923374,105.574967"
  },
  {
    "id": 193,
    "branch_id": "PNP09",
    "latitude": 11.501452,
    "longitude": 104.768093,
    "province": "Phnom Penh Capital",
    "province_kh": "រាជធានីភ្នំពេញ",
    "district": "Doun Penh Khan",
    "district_kh": "ខណ្ឌដូនពេញ",
    "commune": "",
    "commune_kh": "",
    "village": "",
    "village_kh": "",
    "market": "Kamboul 3",
    "market_kh": "ផ្សារកំបូល៣",
    "google_maps_url": "https://www.google.com/maps?q=11.501452,104.768093"
  },
  {
    "id": 194,
    "branch_id": "CHH02",
    "latitude": 11.971864,
    "longitude": 104.561757,
    "province": "Kampong Chhnang",
    "province_kh": "កំពង់ឆ្នាំង",
    "district": "Sameakki Mean Chey",
    "district_kh": "សាមគ្គីមានជ័យ",
    "commune": "",
    "commune_kh": "",
    "village": "",
    "village_kh": "",
    "market": "Krang Lvear Marke",
    "market_kh": "ផ្សារក្រាំងល្វា មារកេ",
    "google_maps_url": "https://www.google.com/maps?q=11.971864,104.561757"
  },
  {
    "id": 195,
    "branch_id": "PNP01",
    "latitude": 11.558084,
    "longitude": 104.922741,
    "province": "Phnom Penh Capital",
    "province_kh": "រាជធានីភ្នំពេញ",
    "district": "Doun Penh Khan",
    "district_kh": "ខណ្ឌដូនពេញ",
    "commune": "Boeng Reang Sangkat",
    "commune_kh": "សង្កាត់បឹងរាំង",
    "village": "",
    "village_kh": "",
    "market": "Psar Silerb",
    "market_kh": "ផ្សារ សីលេរប",
    "google_maps_url": "https://www.google.com/maps?q=11.558084,104.922741"
  },
  {
    "id": 196,
    "branch_id": "PNP08",
    "latitude": 11.543823,
    "longitude": 104.872543,
    "province": "Phnom Penh Capital",
    "province_kh": "រាជធានីភ្នំពេញ",
    "district": "Saensokh Khan",
    "district_kh": "ខណ្ឌសែនសុខ",
    "commune": "Ou Baek K'am Sangkat",
    "commune_kh": "សង្កាត់អូរបែកក្អម",
    "village": "Ou Baek K'am",
    "village_kh": "អូរបែកក្អម",
    "market": "Superstore",
    "market_kh": "ផ្សារ Superstore",
    "google_maps_url": "https://www.google.com/maps?q=11.543823,104.872543"
  },
  {
    "id": 197,
    "branch_id": "PNP08",
    "latitude": 11.532679,
    "longitude": 104.869242,
    "province": "Phnom Penh Capital",
    "province_kh": "រាជធានីភ្នំពេញ",
    "district": "Mean Chey Khan",
    "district_kh": "ខណ្ឌមានជ័យ",
    "commune": "Stueng Mean chey 3 Sangkat",
    "commune_kh": "សង្កាត់ស្ទឹងមានជ័យទី៣",
    "village": "",
    "village_kh": "",
    "market": "Chip Mong",
    "market_kh": "ផ្សារចីព មូង",
    "google_maps_url": "https://www.google.com/maps?q=11.532679,104.869242"
  },
  {
    "id": 198,
    "branch_id": "KAM04",
    "latitude": 10.76578,
    "longitude": 104.495461,
    "province": "Kampot",
    "province_kh": "កំពត",
    "district": "Dang Tong",
    "district_kh": "ដងទង់",
    "commune": "Dang Tong",
    "commune_kh": "ដងទង់",
    "village": "",
    "village_kh": "",
    "market": "Baniev Market",
    "market_kh": "ផ្សារបានីេវ",
    "google_maps_url": "https://www.google.com/maps?q=10.76578,104.495461"
  },
  {
    "id": 199,
    "branch_id": "CHH01",
    "latitude": 12.274396,
    "longitude": 104.726477,
    "province": "Kampong Chhnang",
    "province_kh": "កំពង់ឆ្នាំង",
    "district": "Kampong Leaeng",
    "district_kh": "កំពង់លែង",
    "commune": "Kampong Hau",
    "commune_kh": "កំពង់ហៅ",
    "village": "Kampong Boeng",
    "village_kh": "កំពង់បឹង",
    "market": "Phsar Santipheap Kampong Boeng",
    "market_kh": "ផ្សារ សានតីផេាព កំពង់ បឹង",
    "google_maps_url": "https://www.google.com/maps?q=12.274396,104.726477"
  },
  {
    "id": 200,
    "branch_id": "KAN01",
    "latitude": 11.438324,
    "longitude": 104.896148,
    "province": "Phnom Penh Capital",
    "province_kh": "រាជធានីភ្នំពេញ",
    "district": "Dangkao Khan",
    "district_kh": "ខណ្ឌដង្កោ",
    "commune": "Preaek Kampues Sangkat",
    "commune_kh": "សង្កាត់ព្រែកកំពឹស",
    "village": "Preaek Kampues",
    "village_kh": "ព្រែកកំពឹស",
    "market": "Piphup Thmey Market",
    "market_kh": "ផ្សារពិភពថ្មី",
    "google_maps_url": "https://www.google.com/maps?q=11.438324,104.896148"
  },