Pickup Branch,Commune EN,Commune Khmer,Phone,Branch Code,Branch EN,Branch Khmer,Type,Status,Latitude,Longitude,Search Text
BANA001,Chamnaom,Chamnaom,0716111197,BAN,Banteay Meanchey,Banteay Meanchey,Authorized Dealer/ Authorized Agent,In effect,13.437565,102.934632,BANA001 | Chamnaom | Chamnaom | 0716111197 | BAN | Banteay Meanchey | Banteay Meanchey
BANA002,Paoy Paet,Paoy Paet,068664966,BAN,Banteay Meanchey,Banteay Meanchey,Authorized Dealer/ Authorized Agent,In effect,13.682498,102.564968,BANA002 | Paoy Paet | Paoy Paet | 068664966 | BAN | Banteay Meanchey | Banteay Meanchey
BANA003,Preah Punlea,Preah Punlea,0884844416,BAN,Banteay Meanchey,Banteay Meanchey,Authorized Dealer/ Authorized Agent,In effect,13.59106,102.973797,BANA003 | Preah Punlea | Preah Punlea | 0884844416 | BAN | Banteay Meanchey | Banteay Meanchey
BANA004,Phsar Kandal,Phsar Kandal,0882344488,BAN,Banteay Meanchey,Banteay Meanchey,Authorized Dealer/ Authorized Agent,In effect,13.646559,102.590885,BANA004 | Phsar Kandal | Phsar Kandal | 0882344488 | BAN | Banteay Meanchey | Banteay Meanchey
BANA005,Ou Ruessei,Ou Ruessei,0977842760,BAN,Banteay Meanchey,Banteay Meanchey,Authorized Dealer/ Authorized Agent,In effect,13.69538,102.651888,BANA005 | Ou Ruessei | Ou Ruessei | 0977842760 | BAN | Banteay Meanchey | Banteay Meanchey
BANA006,Roluos,Roluos,067253334,BAN,Banteay Meanchey,Banteay Meanchey,Authorized Dealer/ Authorized Agent,In effect,13.80385,102.96445,BANA006 | Roluos | Roluos | 067253334 | BAN | Banteay Meanchey | Banteay Meanchey
BANA007,Phnum Touch,Phnum Touch,0973991168,BAN,Banteay Meanchey,Banteay Meanchey,Authorized Dealer/ Authorized Agent,In effect,13.410764,103.017448,BANA007 | Phnum Touch | Phnum Touch | 0973991168 | BAN | Banteay Meanchey | Banteay Meanchey
BANA008,Paoy Char,Paoy Char,0889574697,BAN,Banteay Meanchey,Banteay Meanchey,Authorized Dealer/ Authorized Agent,In effect,13.774137,103.313281,BANA008 | Paoy Char | Paoy Char | 0889574697 | BAN | Banteay Meanchey | Banteay Meanchey
BANA009,Chub Vari,Chub Vari,0717333545,BAN,Banteay Meanchey,Banteay Meanchey,Authorized Dealer/ Authorized Agent,In effect,13.623668,103.182027,BANA009 | Chub Vari | Chub Vari | 0717333545 | BAN | Banteay Meanchey | Banteay Meanchey
BANA010,Banteay Chhmar,Banteay Chhmar,0976111877,BAN,Banteay Meanchey,Banteay Meanchey,Authorized Dealer/ Authorized Agent,In effect,12.252597,105.977067,BANA010 | Banteay Chhmar | Banteay Chhmar | 0976111877 | BAN | Banteay Meanchey | Banteay Meanchey
BANA011,Kampong Svay,Kampong Svay,066824778,BAN,Banteay Meanchey,Banteay Meanchey,Authorized Dealer/ Authorized Agent,In effect,13.600802,102.967587,BANA011 | Kampong Svay | Kampong Svay | 066824778 | BAN | Banteay Meanchey | Banteay Meanchey
BANA012,Malai,Malai,0313339007,BAN,Banteay Meanchey,Banteay Meanchey,Authorized Dealer/ Authorized Agent,In effect,13.566301,102.364078,BANA012 | Malai | Malai | 0313339007 | BAN | Banteay Meanchey | Banteay Meanchey
BANA013,Thma Puok,Thma Puok,0974331131,BAN,Banteay Meanchey,Banteay Meanchey,Authorized Dealer/ Authorized Agent,In effect,13.941231,103.049339,BANA013 | Thma Puok | Thma Puok | 0974331131 | BAN | Banteay Meanchey | Banteay Meanchey
BANA014,Koub,Koub,0973037787,BAN,Banteay Meanchey,Banteay Meanchey,Authorized Dealer/ Authorized Agent,In effect,13.608353,102.764872,BANA014 | Koub | Koub | 0973037787 | BAN | Banteay Meanchey | Banteay Meanchey
BANA015,Changha,Changha,068982047,BAN,Banteay Meanchey,Banteay Meanchey,Authorized Dealer/ Authorized Agent,In effect,13.647113,102.886313,BANA015 | Changha | Changha | 068982047 | BAN | Banteay Meanchey | Banteay Meanchey
BANA016,Phnum Lieb,Phnum Lieb,0885960140,BAN,Banteay Meanchey,Banteay Meanchey,Authorized Dealer/ Authorized Agent,In effect,13.605432,103.312393,BANA016 | Phnum Lieb | Phnum Lieb | 0885960140 | BAN | Banteay Meanchey | Banteay Meanchey
BANA017,Punley,Punley,0975662211,BAN,Banteay Meanchey,Banteay Meanchey,Authorized Dealer/ Authorized Agent,In effect,13.76928,103.22615,BANA017 | Punley | Punley | 0975662211 | BAN | Banteay Meanchey | Banteay Meanchey
BANA018,Sla Kram,Sla Kram,0972078889,BAN,Banteay Meanchey,Banteay Meanchey,Authorized Dealer/ Authorized Agent,In effect,13.832156,102.833294,BANA018 | Sla Kram | Sla Kram | 0972078889 | BAN | Banteay Meanchey | Banteay Meanchey
BANA020,Banteay Neang,Banteay Neang,067895868,BAN,Banteay Meanchey,Banteay Meanchey,Authorized Dealer/ Authorized Agent,In effect,13.515097,103.017095,BANA020 | Banteay Neang | Banteay Neang | 067895868 | BAN | Banteay Meanchey | Banteay Meanchey
BANP001,Serei Saophoan,Serei Saophoan,0316000285,BAN,Banteay Meanchey,Banteay Meanchey,Post office,In effect,13.59572,102.97069,BANP001 | Serei Saophoan | Serei Saophoan | 0316000285 | BAN | Banteay Meanchey | Banteay Meanchey
BANS001,Ou Ambel,Ou Ambel,0976868001,BAN,Banteay Meanchey,Banteay Meanchey,Post office,In effect,13.5852101,102.9724208,BANS001 | Ou Ambel | Ou Ambel | 0976868001 | BAN | Banteay Meanchey | Banteay Meanchey
BANS002,Paoy Paet,Paoy Paet,0976868001,BAN,Banteay Meanchey,Banteay Meanchey,Post office,In effect,13.65887,102.554344,BANS002 | Paoy Paet | Paoy Paet | 0976868001 | BAN | Banteay Meanchey | Banteay Meanchey
BANS003,Thma Puok,Thma Puok,0976868003,BAN,Banteay Meanchey,Banteay Meanchey,Post office,In effect,13.9413014,103.049302,BANS003 | Thma Puok | Thma Puok | 0976868003 | BAN | Banteay Meanchey | Banteay Meanchey
BANS004,Srah Chik,Srah Chik,0976868004,BAN,Banteay Meanchey,Banteay Meanchey,Post office,In effect,13.74387,103.33588,BANS004 | Srah Chik | Srah Chik | 0976868004 | BAN | Banteay Meanchey | Banteay Meanchey
BCTEST6,BCTEST6,BCTEST6,,BAN,Banteay Meanchey,Banteay Meanchey,Post office,Out of effect,,,BCTEST6 | BCTEST6 | BCTEST6 | BAN | Banteay Meanchey | Banteay Meanchey
HZ4P01,Head Office Z4,Head Office Z4,,BAN,Banteay Meanchey,Banteay Meanchey,Phòng ban,In effect,,,HZ4P01 | Head Office Z4 | Head Office Z4 | BAN | Banteay Meanchey | Banteay Meanchey
BATA001,Chomkar Somraong,Chomkar Somraong,092281838,BAT,Battambang,Battambang,Authorized Dealer/ Authorized Agent,In effect,13.129832,103.198146,BATA001 | Chomkar Somraong | Chomkar Somraong | 092281838 | BAT | Battambang | Battambang
BATA002,Kampong Prieng,Kampong Prieng,0313804400,BAT,Battambang,Battambang,Authorized Dealer/ Authorized Agent,In effect,12.9489,103.3383,BATA002 | Kampong Prieng | Kampong Prieng | 0313804400 | BAT | Battambang | Battambang
BATA003,Phnum Sampov,Phnum Sampov,0975055550,BAT,Battambang,Battambang,Authorized Dealer/ Authorized Agent,In effect,13.0296,103.1009,BATA003 | Phnum Sampov | Phnum Sampov | 0975055550 | BAT | Battambang | Battambang
BATA004,Vaot Ta Muem 01,Vaot Ta Muem 01,0889678999,BAT,Battambang,Battambang,Authorized Dealer/ Authorized Agent,In effect,13.0627,103.2032,BATA004 | Vaot Ta Muem 01 | Vaot Ta Muem 01 | 0889678999 | BAT | Battambang | Battambang
BATA005,Tuol Ta Ek,Tuol Ta Ek,0977705535,BAT,Battambang,Battambang,Authorized Dealer/ Authorized Agent,In effect,13.09573,103.190527,BATA005 | Tuol Ta Ek | Tuol Ta Ek | 0977705535 | BAT | Battambang | Battambang
BATA006,Moung,Moung,0976083766,BAT,Battambang,Battambang,Authorized Dealer/ Authorized Agent,In effect,12.775837,103.448387,BATA006 | Moung | Moung | 0976083766 | BAT | Battambang | Battambang
BATA007,Snoeng,Snoeng,0888876795,BAT,Battambang,Battambang,Authorized Dealer/ Authorized Agent,In effect,12.9784,103.0544,BATA007 | Snoeng | Snoeng | 0888876795 | BAT | Battambang | Battambang
BATA008,Vaot Ta Muem 02,Vaot Ta Muem 02,0712700200,BAT,Battambang,Battambang,Authorized Dealer/ Authorized Agent,In effect,13.03679,103.20173,BATA008 | Vaot Ta Muem 02 | Vaot Ta Muem 02 | 0712700200 | BAT | Battambang | Battambang
BATA009,REM SOCHEA,REM SOCHEA,0889977774,BAT,Battambang,Battambang,Authorized Dealer/ Authorized Agent,In effect,13.265685,102.945134,BATA009 | REM SOCHEA | REM SOCHEA | 0889977774 | BAT | Battambang | Battambang
BATA010,Santepheap,Santepheap,0719596977,BAT,Battambang,Battambang,Authorized Dealer/ Authorized Agent,In effect,13.432283,102.366176,BATA010 | Santepheap | Santepheap | 0719596977 | BAT | Battambang | Battambang
BATA011,Boeng Reang,Boeng Reang,067843333,BAT,Battambang,Battambang,Authorized Dealer/ Authorized Agent,In effect,13.087139,102.446107,BATA011 | Boeng Reang | Boeng Reang | 067843333 | BAT | Battambang | Battambang
BATA012,Bour,Bour,0884477766,BAT,Battambang,Battambang,Authorized Dealer/ Authorized Agent,In effect,13.283736,102.615651,BATA012 | Bour | Bour | 0884477766 | BAT | Battambang | Battambang
BATA013,Pech Chenda 01,Pech Chenda 01,0977878161,BAT,Battambang,Battambang,Authorized Dealer/ Authorized Agent,In effect,13.222725,102.391644,BATA013 | Pech Chenda 01 | Pech Chenda 01 | 0977878161 | BAT | Battambang | Battambang
BATA014,Pech Chenda 02,Pech Chenda 02,0977777893,BAT,Battambang,Battambang,Authorized Dealer/ Authorized Agent,In effect,13.2117,102.532803,BATA014 | Pech Chenda 02 | Pech Chenda 02 | 0977777893 | BAT | Battambang | Battambang
BATA015,Sdok Pravoek,Sdok Pravoek,0716709006,BAT,Battambang,Battambang,Authorized Dealer/ Authorized Agent,In effect,12.603483,103.490935,BATA015 | Sdok Pravoek | Sdok Pravoek | 0716709006 | BAT | Battambang | Battambang
BATA016,Ta Kream,Ta Kream,0717111122,BAT,Battambang,Battambang,Authorized Dealer/ Authorized Agent,In effect,13.090324,103.023334,BATA016 | Ta Kream | Ta Kream | 0717111122 | BAT | Battambang | Battambang
BATA017,Ta Sanh,Ta Sanh,0714776666,BAT,Battambang,Battambang,Authorized Dealer/ Authorized Agent,In effect,12.616636,102.858967,BATA017 | Ta Sanh | Ta Sanh | 0714776666 | BAT | Battambang | Battambang
BATA018,Kampong Lpov,Kampong Lpov,066811551,BAT,Battambang,Battambang,Authorized Dealer/ Authorized Agent,In effect,12.543875,102.865274,BATA018 | Kampong Lpov | Kampong Lpov | 066811551 | BAT | Battambang | Battambang
BATA019,Traeng,Traeng,0714263333,BAT,Battambang,Battambang,Authorized Dealer/ Authorized Agent,In effect,12.832975,102.894727,BATA019 | Traeng | Traeng | 0714263333 | BAT | Battambang | Battambang
BATA021,Preaek Chik,Preaek Chik,0719462246,BAT,Battambang,Battambang,Authorized Dealer/ Authorized Agent,In effect,12.651708,103.396619,BATA021 | Preaek Chik | Preaek Chik | 0719462246 | BAT | Battambang | Battambang
BATA022,Bavel,Bavel,060244232,BAT,Battambang,Battambang,Authorized Dealer/ Authorized Agent,In effect,13.256093,102.875914,BATA022 | Bavel | Bavel | 060244232 | BAT | Battambang | Battambang
BATA023,Chrey,Chrey,068444789,BAT,Battambang,Battambang,Authorized Dealer/ Authorized Agent,In effect,13.112873,103.136953,BATA023 | Chrey | Chrey | 068444789 | BAT | Battambang | Battambang
BATA024,Boeng Pring,Boeng Pring,0719066617,BAT,Battambang,Battambang,Authorized Dealer/ Authorized Agent,In effect,13.366959,103.034112,BATA024 | Boeng Pring | Boeng Pring | 0719066617 | BAT | Battambang | Battambang
BATA025,Ta Pung,Ta Pung,066864422,BAT,Battambang,Battambang,Authorized Dealer/ Authorized Agent,In effect,13.264179,103.089398,BATA025 | Ta Pung | Ta Pung | 066864422 | BAT | Battambang | Battambang
BATA026,Svay Por,Svay Por,0886888897,BAT,Battambang,Battambang,Authorized Dealer/ Authorized Agent,In effect,13.0859,103.1988,BATA026 | Svay Por | Svay Por | 0886888897 | BAT | Battambang | Battambang
BATA027,Ou Ta Ki,Ou Ta Ki,0318424242,BAT,Battambang,Battambang,Authorized Dealer/ Authorized Agent,In effect,13.167237,103.112915,BATA027 | Ou Ta Ki | Ou Ta Ki | 0318424242 | BAT | Battambang | Battambang
BATA028,Ta Sda,Ta Sda,0314157888,BAT,Battambang,Battambang,Authorized Dealer/ Authorized Agent,In effect,13.404488,102.455575,BATA028 | Ta Sda | Ta Sda | 0314157888 | BAT | Battambang | Battambang
BATA029,Thipakdei,Thipakdei,0979928802,BAT,Battambang,Battambang,Authorized Dealer/ Authorized Agent,In effect,12.856523,103.26872,BATA029 | Thipakdei | Thipakdei | 0979928802 | BAT | Battambang | Battambang
BATA030,Prey Svay,Prey Svay,0319992324,BAT,Battambang,Battambang,Authorized Dealer/ Authorized Agent,In effect,12.713477,103.544657,BATA030 | Prey Svay | Prey Svay | 0319992324 | BAT | Battambang | Battambang
BATA032,Sdau,Sdau,0886384445,BAT,Battambang,Battambang,Authorized Dealer/ Authorized Agent,In effect,12.891503,102.973863,BATA032 | Sdau | Sdau | 0886384445 | BAT | Battambang | Battambang
BATA033,Ampil Pram Daeum,Ampil Pram Daeum,0886666033,BAT,Battambang,Battambang,Authorized Dealer/ Authorized Agent,In effect,13.260059,102.767866,BATA033 | Ampil Pram Daeum | Ampil Pram Daeum | 0886666033 | BAT | Battambang | Battambang
BATA034,Ou Char,Ou Char,090471804,BAT,Battambang,Battambang,Authorized Dealer/ Authorized Agent,In effect,13.1076,103.1755,BATA034 | Ou Char | Ou Char | 090471804 | BAT | Battambang | Battambang
BATA035,Anlung Vil,Anlung Vil,0718525353,BAT,Battambang,Battambang,Authorized Dealer/ Authorized Agent,In effect,13.0624,103.2563,BATA035 | Anlung Vil | Anlung Vil | 0718525353 | BAT | Battambang | Battambang
BATA036,Vaot Ta Muem,Vaot Ta Muem,0889595557,BAT,Battambang,Battambang,Authorized Dealer/ Authorized Agent,In effect,13.01234,103.187065,BATA036 | Vaot Ta Muem | Vaot Ta Muem | 0889595557 | BAT | Battambang | Battambang
BATA037,Peam Aek,Peam Aek,0973366686,BAT,Battambang,Battambang,Authorized Dealer/ Authorized Agent,In effect,13.161,103.2086,BATA037 | Peam Aek | Peam Aek | 0973366686 | BAT | Battambang | Battambang
BATA038,Prey Khpos,Prey Khpos,0979676228,BAT,Battambang,Battambang,Authorized Dealer/ Authorized Agent,In effect,13.347834,102.905611,BATA038 | Prey Khpos | Prey Khpos | 0979676228 | BAT | Battambang | Battambang
BATA039,Mukh Rea,Mukh Rea,0979655007,BAT,Battambang,Battambang,Authorized Dealer/ Authorized Agent,In effect,12.77559,103.448243,BATA039 | Mukh Rea | Mukh Rea | 0979655007 | BAT | Battambang | Battambang
BATA040,Prek Preah Sdach,Prek Preah Sdach,0718378888,BAT,Battambang,Battambang,Authorized Dealer/ Authorized Agent,In effect,13.0887,103.2127,BATA040 | Prek Preah Sdach | Prek Preah Sdach | 0718378888 | BAT | Battambang | Battambang
BATA041,Moung Ruessei,Moung Ruessei,0965244331,BAT,Battambang,Battambang,Authorized Dealer/ Authorized Agent,In effect,12.903065,103.3680416,BATA041 | Moung Ruessei | Moung Ruessei | 0965244331 | BAT | Battambang | Battambang
BATP001,Battambang,Battambang,0972277127,BAT,Battambang,Battambang,Post office,In effect,13.106159,103.195737,BATP001 | Battambang | Battambang | 0972277127 | BAT | Battambang | Battambang
BATS001,Tuol Ta Ek,Tuol Ta Ek,0972282257,BAT,Battambang,Battambang,Post office,In effect,13.095671,103.190739,BATS001 | Tuol Ta Ek | Tuol Ta Ek | 0972282257 | BAT | Battambang | Battambang
BATS002,Ta Pung,Ta Pung,0888894466,BAT,Battambang,Battambang,Post office,In effect,13.269928,103.089933,BATS002 | Ta Pung | Ta Pung | 0888894466 | BAT | Battambang | Battambang
BATS003,Boeng Reang,Boeng Reang,,BAT,Battambang,Battambang,Post office,In effect,13.088761,102.445678,BATS003 | Boeng Reang | Boeng Reang | BAT | Battambang | Battambang
BATS004,Santepheap,Santepheap,,BAT,Battambang,Battambang,Post office,In effect,13.431886,102.376649,BATS004 | Santepheap | Santepheap | BAT | Battambang | Battambang
BATS005,Sdau,Sdau,068444789,BAT,Battambang,Battambang,Post office,In effect,12.892662,102.97397,BATS005 | Sdau | Sdau | 068444789 | BAT | Battambang | Battambang
BATS006,Bavel,Bavel,090929939,BAT,Battambang,Battambang,Post office,In effect,13.25407,102.873046,BATS006 | Bavel | Bavel | 090929939 | BAT | Battambang | Battambang
BATS007,Moung,Moung,0885676516,BAT,Battambang,Battambang,Post office,In effect,12.775514,103.447784,BATS007 | Moung | Moung | 0885676516 | BAT | Battambang | Battambang
BATS008,Sdau,Sdau,,BAT,Battambang,Battambang,Post office,In effect,12.5333,102.5826,BATS008 | Sdau | Sdau | BAT | Battambang | Battambang
DVCZ2,Vehicle Team Z2,Vehicle Team Z2,,BAT,Battambang,Battambang,Transportation Team/ Delivery Team/ Shipping Team,In effect,,,DVCZ2 | Vehicle Team Z2 | Vehicle Team Z2 | BAT | Battambang | Battambang
HUBBAT01,Hub vùng HUBBAT01,Hub vùng HUBBAT01,,BAT,Battambang,Battambang,Regional Warehouse,Out of effect,13.338261812530442,103.08321449677263,HUBBAT01 | Hub vùng HUBBAT01 | Hub vùng HUBBAT01 | BAT | Battambang | Battambang
HZ3P01,Head Office Z3,Head Office Z3,,BAT,Battambang,Battambang,Phòng ban,In effect,,,HZ3P01 | Head Office Z3 | Head Office Z3 | BAT | Battambang | Battambang
KVBAT01,Kho vùng BAT,Kho vùng BAT,,BAT,Battambang,Battambang,Regional Warehouse,Out of effect,,,KVBAT01 | Kho vùng BAT | Kho vùng BAT | BAT | Battambang | Battambang
CHAA001,Peam Prathnuoh,Peam Prathnuoh,0888664145,CHA,Kampong Cham,Kampong Cham,Authorized Dealer/ Authorized Agent,In effect,11.892662,105.428499,CHAA001 | Peam Prathnuoh | Peam Prathnuoh | 0888664145 | CHA | Kampong Cham | Kampong Cham
CHAA002,Chrey Vien,Chrey Vien,067665432,CHA,Kampong Cham,Kampong Cham,Authorized Dealer/ Authorized Agent,In effect,12.058398,105.257688,CHAA002 | Chrey Vien | Chrey Vien | 067665432 | CHA | Kampong Cham | Kampong Cham
CHAA003,Kor,Kor,066666642,CHA,Kampong Cham,Kampong Cham,Authorized Dealer/ Authorized Agent,In effect,12.11317,105.21706,CHAA003 | Kor | Kor | 066666642 | CHA | Kampong Cham | Kampong Cham
CHAA004,Sandaek,Sandaek,0886341117,CHA,Kampong Cham,Kampong Cham,Authorized Dealer/ Authorized Agent,In effect,12.123065,104.970836,CHAA004 | Sandaek | Sandaek | 0886341117 | CHA | Kampong Cham | Kampong Cham
CHAA005,Me Sar Chrey,Me Sar Chrey,060373336,CHA,Kampong Cham,Kampong Cham,Authorized Dealer/ Authorized Agent,In effect,12.29968,105.419272,CHAA005 | Me Sar Chrey | Me Sar Chrey | 060373336 | CHA | Kampong Cham | Kampong Cham
CHAA006,Peam Chi Kang,Peam Chi Kang,0979008412,CHA,Kampong Cham,Kampong Cham,Authorized Dealer/ Authorized Agent,In effect,11.946622,105.247515,CHAA006 | Peam Chi Kang | Peam Chi Kang | 0979008412 | CHA | Kampong Cham | Kampong Cham
CHAA007,Ta Prok,Ta Prok,0714862222,CHA,Kampong Cham,Kampong Cham,Authorized Dealer/ Authorized Agent,In effect,12.376818,105.222342,CHAA007 | Ta Prok | Ta Prok | 0714862222 | CHA | Kampong Cham | Kampong Cham
CHAA008,Thma Pun,Thma Pun,0313100028,CHA,Kampong Cham,Kampong Cham,Authorized Dealer/ Authorized Agent,In effect,12.162685,105.246162,CHAA008 | Thma Pun | Thma Pun | 0313100028 | CHA | Kampong Cham | Kampong Cham
CHAA009,Tang Krang,Tang Krang,0716601215,CHA,Kampong Cham,Kampong Cham,Authorized Dealer/ Authorized Agent,In effect,11.885387,104.935627,CHAA009 | Tang Krang | Tang Krang | 0716601215 | CHA | Kampong Cham | Kampong Cham
CHAA010,Bos Khnor,Bos Khnor,0717774841,CHA,Kampong Cham,Kampong Cham,Authorized Dealer/ Authorized Agent,In effect,12.180892,105.322863,CHAA010 | Bos Khnor | Bos Khnor | 0717774841 | CHA | Kampong Cham | Kampong Cham
CHAA011,Lvea,Lvea,0319621863,CHA,Kampong Cham,Kampong Cham,Authorized Dealer/ Authorized Agent,In effect,12.057856,105.181435,CHAA011 | Lvea | Lvea | 0319621863 | CHA | Kampong Cham | Kampong Cham
CHAA012,Khvet Thum,Khvet Thum,0976561888,CHA,Kampong Cham,Kampong Cham,Authorized Dealer/ Authorized Agent,In effect,12.059258,105.211236,CHAA012 | Khvet Thum | Khvet Thum | 0976561888 | CHA | Kampong Cham | Kampong Cham
CHAA013,Chealea,Chealea,0977713334,CHA,Kampong Cham,Kampong Cham,Authorized Dealer/ Authorized Agent,In effect,11.9945,104.9433,CHAA013 | Chealea | Chealea | 0977713334 | CHA | Kampong Cham | Kampong Cham
CHAA014,Batheay,Batheay,0716363168,CHA,Kampong Cham,Kampong Cham,Authorized Dealer/ Authorized Agent,In effect,12.027384,104.962943,CHAA014 | Batheay | Batheay | 0716363168 | CHA | Kampong Cham | Kampong Cham
CHAA015,Soutib,Soutib,0979431314,CHA,Kampong Cham,Kampong Cham,Authorized Dealer/ Authorized Agent,In effect,12.05615,105.074797,CHAA015 | Soutib | Soutib | 0979431314 | CHA | Kampong Cham | Kampong Cham
CHAA016,Veal Vung,Veal Vung,0718010101,CHA,Kampong Cham,Kampong Cham,Authorized Dealer/ Authorized Agent,In effect,11.979458,105.458557,CHAA016 | Veal Vung | Veal Vung | 0718010101 | CHA | Kampong Cham | Kampong Cham
CHAA017,Areak Tnaot,Areak Tnaot,0973399000,CHA,Kampong Cham,Kampong Cham,Authorized Dealer/ Authorized Agent,In effect,12.362246,105.587401,CHAA017 | Areak Tnaot | Areak Tnaot | 0973399000 | CHA | Kampong Cham | Kampong Cham
CHAA018,Kampong Cham,Kampong Cham,0974128678,CHA,Kampong Cham,Kampong Cham,Authorized Dealer/ Authorized Agent,In effect,11.991004,105.466677,CHAA018 | Kampong Cham | Kampong Cham | 0974128678 | CHA | Kampong Cham | Kampong Cham
CHAA019,Roka Koy,Roka Koy,0977644227,CHA,Kampong Cham,Kampong Cham,Authorized Dealer/ Authorized Agent,In effect,11.9412,105.3009,CHAA019 | Roka Koy | Roka Koy | 0977644227 | CHA | Kampong Cham | Kampong Cham
CHAA020,Hanchey,Hanchey,0713333612,CHA,Kampong Cham,Kampong Cham,Authorized Dealer/ Authorized Agent,In effect,12.1363,105.5264,CHAA020 | Hanchey | Hanchey | 0713333612 | CHA | Kampong Cham | Kampong Cham
CHAA021,Svay Pou,Svay Pou,068536475,CHA,Kampong Cham,Kampong Cham,Authorized Dealer/ Authorized Agent,In effect,11.780832,105.081073,CHAA021 | Svay Pou | Svay Pou | 068536475 | CHA | Kampong Cham | Kampong Cham
CHAA022,Preak Kak,Preak Kak,0888855293,CHA,Kampong Cham,Kampong Cham,Authorized Dealer/ Authorized Agent,In effect,12.258039,105.533665,CHAA022 | Preak Kak | Preak Kak | 0888855293 | CHA | Kampong Cham | Kampong Cham
CHAA023,Preak Rumdeng,Preak Rumdeng,0884421662,CHA,Kampong Cham,Kampong Cham,Authorized Dealer/ Authorized Agent,In effect,11.9178,105.23044,CHAA023 | Preak Rumdeng | Preak Rumdeng | 0884421662 | CHA | Kampong Cham | Kampong Cham
CHAA024,Tumnob,Tumnob,090999000,CHA,Kampong Cham,Kampong Cham,Authorized Dealer/ Authorized Agent,In effect,12.080426,104.975446,CHAA024 | Tumnob | Tumnob | 090999000 | CHA | Kampong Cham | Kampong Cham
CHAA025,Lom Hae,Lom Hae,0977865168,CHA,Kampong Cham,Kampong Cham,Authorized Dealer/ Authorized Agent,In effect,11.992734,105.451041,CHAA025 | Lom Hae | Lom Hae | 0977865168 | CHA | Kampong Cham | Kampong Cham
CHAP001,Kampong Cham,Kampong Cham,067981954,CHA,Kampong Cham,Kampong Cham,Post office,In effect,11.989084,105.462284,CHAP001 | Kampong Cham | Kampong Cham | 067981954 | CHA | Kampong Cham | Kampong Cham
CHAS001,Veal Vung,Veal Vung,0884531122,CHA,Kampong Cham,Kampong Cham,Post office,In effect,11.989346,105.458567,CHAS001 | Veal Vung | Veal Vung | 0884531122 | CHA | Kampong Cham | Kampong Cham
CHAS002,Preak Kak,Preak Kak,0718040003,CHA,Kampong Cham,Kampong Cham,Post office,In effect,12.255298,105.539182,CHAS002 | Preak Kak | Preak Kak | 0718040003 | CHA | Kampong Cham | Kampong Cham
CHAS003,Soutib,Soutib,0977310368,CHA,Kampong Cham,Kampong Cham,Post office,In effect,12.053318,105.056898,CHAS003 | Soutib | Soutib | 0977310368 | CHA | Kampong Cham | Kampong Cham
CHAS004,Chrey Vien,Chrey Vien,060958251,CHA,Kampong Cham,Kampong Cham,Post office,In effect,12.057873,105.247003,CHAS004 | Chrey Vien | Chrey Vien | 060958251 | CHA | Kampong Cham | Kampong Cham
CHAS005,Svay Teab,Svay Teab,0978122251,CHA,Kampong Cham,Kampong Cham,Post office,In effect,12.3140397,105.2777613,CHAS005 | Svay Teab | Svay Teab | 0978122251 | CHA | Kampong Cham | Kampong Cham
CHHA001,Ou Ruessei 01,Ou Ruessei 01,0979256868,CHH,Kampong Chhnang,Kampong Chhnang,Authorized Dealer/ Authorized Agent,In effect,11.939555,104.714322,CHHA001 | Ou Ruessei 01 | Ou Ruessei 01 | 0979256868 | CHH | Kampong Chhnang | Kampong Chhnang
CHHA002,Pongro,Pongro,0882356429,CHH,Kampong Chhnang,Kampong Chhnang,Authorized Dealer/ Authorized Agent,In effect,12.257837,104.660942,CHHA002 | Pongro | Pongro | 0882356429 | CHH | Kampong Chhnang | Kampong Chhnang
CHHA003,Ou Ruessei 02,Ou Ruessei 02,068519717,CHH,Kampong Chhnang,Kampong Chhnang,Authorized Dealer/ Authorized Agent,In effect,11.9517,104.7185,CHHA003 | Ou Ruessei 02 | Ou Ruessei 02 | 068519717 | CHH | Kampong Chhnang | Kampong Chhnang
CHHA004,Saeb,Saeb,0974989014,CHH,Kampong Chhnang,Kampong Chhnang,Authorized Dealer/ Authorized Agent,In effect,12.0705,104.773,CHHA004 | Saeb | Saeb | 0974989014 | CHH | Kampong Chhnang | Kampong Chhnang
CHHA005,Peani,Peani,0885871084,CHH,Kampong Chhnang,Kampong Chhnang,Authorized Dealer/ Authorized Agent,In effect,11.9234,104.7013,CHHA005 | Peani | Peani | 0885871084 | CHH | Kampong Chhnang | Kampong Chhnang
CHHA006,Ta Ches,Ta Ches,0314443535,CHH,Kampong Chhnang,Kampong Chhnang,Authorized Dealer/ Authorized Agent,In effect,12.236991,104.669291,CHHA006 | Ta Ches | Ta Ches | 0314443535 | CHH | Kampong Chhnang | Kampong Chhnang
CHHA007,Prey Kri 01,Prey Kri 01,0715975858,CHH,Kampong Chhnang,Kampong Chhnang,Authorized Dealer/ Authorized Agent,In effect,12.164788,104.881038,CHHA007 | Prey Kri 01 | Prey Kri 01 | 0715975858 | CHH | Kampong Chhnang | Kampong Chhnang
CHHA008,Peam Chhkaok,Peam Chhkaok,0718431010,CHH,Kampong Chhnang,Kampong Chhnang,Authorized Dealer/ Authorized Agent,In effect,12.207648,104.816967,CHHA008 | Peam Chhkaok | Peam Chhkaok | 0718431010 | CHH | Kampong Chhnang | Kampong Chhnang
CHHA009,Krang Skear,Krang Skear,0712847871,CHH,Kampong Chhnang,Kampong Chhnang,Authorized Dealer/ Authorized Agent,In effect,12.238376,104.278047,CHHA009 | Krang Skear | Krang Skear | 0712847871 | CHH | Kampong Chhnang | Kampong Chhnang
CHHA010,Chhnok Tru,Chhnok Tru,0883322881,CHH,Kampong Chhnang,Kampong Chhnang,Authorized Dealer/ Authorized Agent,In effect,12.50071,104.4547,CHHA010 | Chhnok Tru | Chhnok Tru | 0883322881 | CHH | Kampong Chhnang | Kampong Chhnang
CHHA011,Svay Chrum,Svay Chrum,0716555440,CHH,Kampong Chhnang,Kampong Chhnang,Authorized Dealer/ Authorized Agent,In effect,12.279551,104.591655,CHHA011 | Svay Chrum | Svay Chrum | 0716555440 | CHH | Kampong Chhnang | Kampong Chhnang
CHHA012,Trangel,Trangel,0718488815,CHH,Kampong Chhnang,Kampong Chhnang,Authorized Dealer/ Authorized Agent,In effect,12.2854,104.729588,CHHA012 | Trangel | Trangel | 0718488815 | CHH | Kampong Chhnang | Kampong Chhnang
CHHA013,Phsar,Phsar,0979474183,CHH,Kampong Chhnang,Kampong Chhnang,Authorized Dealer/ Authorized Agent,In effect,12.381489,104.487486,CHHA013 | Phsar | Phsar | 0979474183 | CHH | Kampong Chhnang | Kampong Chhnang
CHHA014,Krang Leav,Krang Leav,0979588987,CHH,Kampong Chhnang,Kampong Chhnang,Authorized Dealer/ Authorized Agent,In effect,12.26828,104.610975,CHHA014 | Krang Leav | Krang Leav | 0979588987 | CHH | Kampong Chhnang | Kampong Chhnang
CHHA015,Chrey Bak,Chrey Bak,0883444423,CHH,Kampong Chhnang,Kampong Chhnang,Authorized Dealer/ Authorized Agent,In effect,12.198668,104.653831,CHHA015 | Chrey Bak | Chrey Bak | 0883444423 | CHH | Kampong Chhnang | Kampong Chhnang
CHHA016,Chieb,Chieb,090649635,CHH,Kampong Chhnang,Kampong Chhnang,Authorized Dealer/ Authorized Agent,In effect,12.257837,104.660942,CHHA016 | Chieb | Chieb | 090649635 | CHH | Kampong Chhnang | Kampong Chhnang
CHHA017,Prey Kri 02,Prey Kri 02,0975686565,CHH,Kampong Chhnang,Kampong Chhnang,Authorized Dealer/ Authorized Agent,In effect,12.257837,104.660942,CHHA017 | Prey Kri 02 | Prey Kri 02 | 0975686565 | CHH | Kampong Chhnang | Kampong Chhnang
CHHA018,Rolea B'ier,Rolea B'ier,067334452,CHH,Kampong Chhnang,Kampong Chhnang,Authorized Dealer/ Authorized Agent,In effect,12.236872,104.669272,CHHA018 | Rolea B'ier | Rolea B'ier | 067334452 | CHH | Kampong Chhnang | Kampong Chhnang
CHHA019,Kampong Chhnang,Kampong Chhnang,0977267266,CHH,Kampong Chhnang,Kampong Chhnang,Authorized Dealer/ Authorized Agent,In effect,12.246661,104.671258,CHHA019 | Kampong Chhnang | Kampong Chhnang | 0977267266 | CHH | Kampong Chhnang | Kampong Chhnang
CHHA020,Krang Lvea,Krang Lvea,0887676940,CHH,Kampong Chhnang,Kampong Chhnang,Authorized Dealer/ Authorized Agent,In effect,11.973961,104.561273,CHHA020 | Krang Lvea | Krang Lvea | 0887676940 | CHH | Kampong Chhnang | Kampong Chhnang
CHHA021,Lungveaek,Lungveaek,0889988927,CHH,Kampong Chhnang,Kampong Chhnang,Authorized Dealer/ Authorized Agent,In effect,11.889892,104.708955,CHHA021 | Lungveaek | Lungveaek | 0889988927 | CHH | Kampong Chhnang | Kampong Chhnang
CHHA022,B'er,B'er,0314892168,CHH,Kampong Chhnang,Kampong Chhnang,Authorized Dealer/ Authorized Agent,In effect,12.257863,104.660945,CHHA022 | B'er | B'er | 0314892168 | CHH | Kampong Chhnang | Kampong Chhnang
CHHA023,Rolea Bier,Rolea Bier,0976688782,CHH,Kampong Chhnang,Kampong Chhnang,Authorized Dealer/ Authorized Agent,In effect,12.166712,104.66471,CHHA023 | Rolea Bier | Rolea Bier | 0976688782 | CHH | Kampong Chhnang | Kampong Chhnang
CHHA024,Phsar Trach,Phsar Trach,0974446307,CHH,Kampong Chhnang,Kampong Chhnang,Authorized Dealer/ Authorized Agent,In effect,11.840042,104.716812,CHHA024 | Phsar Trach | Phsar Trach | 0974446307 | CHH | Kampong Chhnang | Kampong Chhnang
CHHP001,Kampong Chhnang,Kampong Chhnang,0978887079,CHH,Kampong Chhnang,Kampong Chhnang,Post office,In effect,12.259851,104.67255,CHHP001 | Kampong Chhnang | Kampong Chhnang | 0978887079 | CHH | Kampong Chhnang | Kampong Chhnang
CHHS001,Kampong Chhnang,Kampong Chhnang,0882464009,CHH,Kampong Chhnang,Kampong Chhnang,Post office,In effect,12.2529466,104.6681428,CHHS001 | Kampong Chhnang | Kampong Chhnang | 0882464009 | CHH | Kampong Chhnang | Kampong Chhnang
CHHS002,Peani,Peani,,CHH,Kampong Chhnang,Kampong Chhnang,Post office,In effect,11.9371944,104.7135,CHHS002 | Peani | Peani | CHH | Kampong Chhnang | Kampong Chhnang
OU RUESSEI 02,Ou Ruessei 02,Ou Ruessei 02,,CHH,Kampong Chhnang,Kampong Chhnang,Authorized Dealer/ Authorized Agent,Out of effect,,,OU RUESSEI 02 | Ou Ruessei 02 | Ou Ruessei 02 | CHH | Kampong Chhnang | Kampong Chhnang
KAMTEST01,Ankor Chey,Ankor Chey,,CNCNTT,Công nghệ thông tin,Công nghệ thông tin,Post office,Out of effect,,,KAMTEST01 | Ankor Chey | Ankor Chey | CNCNTT | Công nghệ thông tin | Công nghệ thông tin
THUBPNP,Training Hub - PNP,Training Hub - PNP,0715222126,CNCNTT,Công nghệ thông tin,Công nghệ thông tin,Regional Warehouse,In effect,,,THUBPNP | Training Hub - PNP | Training Hub - PNP | 0715222126 | CNCNTT | Công nghệ thông tin | Công nghệ thông tin
TRAINING01,MF Training 01 - PNP,MF Training 01 - PNP,0715222123,CNCNTT,Công nghệ thông tin,Công nghệ thông tin,Post office,In effect,,,TRAINING01 | MF Training 01 - PNP | MF Training 01 - PNP | 0715222123 | CNCNTT | Công nghệ thông tin | Công nghệ thông tin
TRAINING02,MF Training 02 - BAT,MF Training 02 - BAT,0715222122,CNCNTT,Công nghệ thông tin,Công nghệ thông tin,Post office,In effect,,,TRAINING02 | MF Training 02 - BAT | MF Training 02 - BAT | 0715222122 | CNCNTT | Công nghệ thông tin | Công nghệ thông tin
TRAINING03,MF Training 03 - PNP,MF Training 03 - PNP,0715222125,CNCNTT,Công nghệ thông tin,Công nghệ thông tin,Post office,In effect,,,TRAINING03 | MF Training 03 - PNP | MF Training 03 - PNP | 0715222125 | CNCNTT | Công nghệ thông tin | Công nghệ thông tin
DVCZ3,Vehicle Team Z3,Vehicle Team Z3,,KAM,Kampot,Kampot,Transportation Team/ Delivery Team/ Shipping Team,In effect,,,DVCZ3 | Vehicle Team Z3 | Vehicle Team Z3 | KAM | Kampot | Kampot
KAMA001,Banteay Meas Khang Kaeut,Banteay Meas Khang Kaeut,0712030403,KAM,Kampot,Kampot,Authorized Dealer/ Authorized Agent,In effect,10.646252,104.655786,KAMA001 | Banteay Meas Khang Kaeut | Banteay Meas Khang Kaeut | 0712030403 | KAM | Kampot | Kampot
KAMA002,Tnoat Chong Srang,Tnoat Chong Srang,0885966105,KAM,Kampot,Kampot,Authorized Dealer/ Authorized Agent,In effect,10.590003,104.690418,KAMA002 | Tnoat Chong Srang | Tnoat Chong Srang | 0885966105 | KAM | Kampot | Kampot
KAMA003,Preaek Kroes,Preaek Kroes,0974442111,KAM,Kampot,Kampot,Authorized Dealer/ Authorized Agent,In effect,10.540408,104.580345,KAMA003 | Preaek Kroes | Preaek Kroes | 0974442111 | KAM | Kampot | Kampot
KAMA005,Chhuk 01,Chhuk 01,060925556,KAM,Kampot,Kampot,Authorized Dealer/ Authorized Agent,In effect,10.766813,104.495433,KAMA005 | Chhuk 01 | Chhuk 01 | 060925556 | KAM | Kampot | Kampot
KAMA006,KEP,KEP,067872737,KAM,Kampot,Kampot,Authorized Dealer/ Authorized Agent,In effect,105.59244,104.3895,KAMA006 | KEP | KEP | 067872737 | KAM | Kampot | Kampot
KAMA007,Phnum Kong,Phnum Kong,090855599,KAM,Kampot,Kampot,Authorized Dealer/ Authorized Agent,In effect,10.774704,104.663157,KAMA007 | Phnum Kong | Phnum Kong | 090855599 | KAM | Kampot | Kampot
KAMA008,Lbaeuk,Lbaeuk,0979907211,KAM,Kampot,Kampot,Authorized Dealer/ Authorized Agent,In effect,10.826849,104.372241,KAMA008 | Lbaeuk | Lbaeuk | 0979907211 | KAM | Kampot | Kampot
KAMA009,Dang Tung 01,Dang Tung 01,0719709797,KAM,Kampot,Kampot,Authorized Dealer/ Authorized Agent,In effect,10.769814,104.373538,KAMA009 | Dang Tung 01 | Dang Tung 01 | 0719709797 | KAM | Kampot | Kampot
KAMA010,Koun Sat,Koun Sat,0973398687,KAM,Kampot,Kampot,Authorized Dealer/ Authorized Agent,In effect,10.601968,104.279321,KAMA010 | Koun Sat | Koun Sat | 0973398687 | KAM | Kampot | Kampot
KAMA011,Chhuk 02,Chhuk 02,0888884413,KAM,Kampot,Kampot,Authorized Dealer/ Authorized Agent,In effect,10.833158,104.450881,KAMA011 | Chhuk 02 | Chhuk 02 | 0888884413 | KAM | Kampot | Kampot
KAMA012,Kaoh Touch,Kaoh Touch,0977336660,KAM,Kampot,Kampot,Authorized Dealer/ Authorized Agent,In effect,10.559037,104.083316,KAMA012 | Kaoh Touch | Kaoh Touch | 0977336660 | KAM | Kampot | Kampot
KAMA013,Trapeang Reang,Trapeang Reang,0718084499,KAM,Kampot,Kampot,Authorized Dealer/ Authorized Agent,In effect,10.922155,104.423925,KAMA013 | Trapeang Reang | Trapeang Reang | 0718084499 | KAM | Kampot | Kampot
KAMA014,Dang Tung 02,Dang Tung 02,066647864,KAM,Kampot,Kampot,Authorized Dealer/ Authorized Agent,In effect,10.70057,104.44922,KAMA014 | Dang Tung 02 | Dang Tung 02 | 066647864 | KAM | Kampot | Kampot
KAMA015,Preaek Tnaot 01,Preaek Tnaot 01,0978107007,KAM,Kampot,Kampot,Authorized Dealer/ Authorized Agent,In effect,10.578851,103.993994,KAMA015 | Preaek Tnaot 01 | Preaek Tnaot 01 | 0978107007 | KAM | Kampot | Kampot
KAMA016,Prey Thnang,Prey Thnang,0883230032,KAM,Kampot,Kampot,Authorized Dealer/ Authorized Agent,In effect,10.69138,104.253991,KAMA016 | Prey Thnang | Prey Thnang | 0883230032 | KAM | Kampot | Kampot
KAMA017,Trapeang Sangkae,Trapeang Sangkae,066365170,KAM,Kampot,Kampot,Authorized Dealer/ Authorized Agent,In effect,10.592727,104.247785,KAMA017 | Trapeang Sangkae | Trapeang Sangkae | 066365170 | KAM | Kampot | Kampot
KAMA018,Kampong Kandal,Kampong Kandal,0715506622,KAM,Kampot,Kampot,Authorized Dealer/ Authorized Agent,In effect,10.603561,104.186762,KAMA018 | Kampong Kandal | Kampong Kandal | 0715506622 | KAM | Kampot | Kampot
KAMA019,Ruessei Srok Khang Lech 01,Ruessei Srok Khang Lech 01,0974815105,KAM,Kampot,Kampot,Authorized Dealer/ Authorized Agent,In effect,10.432794,104.448912,KAMA019 | Ruessei Srok Khang Lech 01 | Ruessei Srok Khang Lech 01 | 0974815105 | KAM | Kampot | Kampot
KAMA020,Kampong Trach Khang Kaeut,Kampong Trach Khang Kaeut,0976993636,KAM,Kampot,Kampot,Authorized Dealer/ Authorized Agent,In effect,10.558688,104.467121,KAMA020 | Kampong Trach Khang Kaeut | Kampong Trach Khang Kaeut | 0976993636 | KAM | Kampot | Kampot
KAMA021,Trapeang Sala Khang Kaeut,Trapeang Sala Khang Kaeut,068470026,KAM,Kampot,Kampot,Authorized Dealer/ Authorized Agent,In effect,10.705028,104.620335,KAMA021 | Trapeang Sala Khang Kaeut | Trapeang Sala Khang Kaeut | 068470026 | KAM | Kampot | Kampot
KAMA022,Praphnum,Praphnum,0977833168,KAM,Kampot,Kampot,Authorized Dealer/ Authorized Agent,In effect,10.839616,104.650137,KAMA022 | Praphnum | Praphnum | 0977833168 | KAM | Kampot | Kampot
KAMA023,Ruessei Srok Khang Lech 02,Ruessei Srok Khang Lech 02,0886242006,KAM,Kampot,Kampot,Authorized Dealer/ Authorized Agent,In effect,10.491692,104.457715,KAMA023 | Ruessei Srok Khang Lech 02 | Ruessei Srok Khang Lech 02 | 0886242006 | KAM | Kampot | Kampot
KAMA024,Ang Sophi,Ang Sophi,0714236423,KAM,Kampot,Kampot,Authorized Dealer/ Authorized Agent,In effect,10.55492,104.499998,KAMA024 | Ang Sophi | Ang Sophi | 0714236423 | KAM | Kampot | Kampot
KAMA025,Damnak Kantuot Khang Cheung,Damnak Kantuot Khang Cheung,0883872671,KAM,Kampot,Kampot,Authorized Dealer/ Authorized Agent,In effect,10.616107,104.451051,KAMA025 | Damnak Kantuot Khang Cheung | Damnak Kantuot Khang Cheung | 0883872671 | KAM | Kampot | Kampot
KAMA026,L ang,L ang,0884042326,KAM,Kampot,Kampot,Authorized Dealer/ Authorized Agent,In effect,10.741902,104.341575,KAMA026 | L ang | L ang | 0884042326 | KAM | Kampot | Kampot
KAMA027,Tuk Meas Khang Lech,Tuk Meas Khang Lech,0886272862,KAM,Kampot,Kampot,Authorized Dealer/ Authorized Agent,In effect,10.666234,104.560236,KAMA027 | Tuk Meas Khang Lech | Tuk Meas Khang Lech | 0886272862 | KAM | Kampot | Kampot
KAMA028,Preaek Tnaot 02,Preaek Tnaot 02,0884811108,KAM,Kampot,Kampot,Authorized Dealer/ Authorized Agent,In effect,10.612442,103.931604,KAMA028 | Preaek Tnaot 02 | Preaek Tnaot 02 | 0884811108 | KAM | Kampot | Kampot
KAMA029,Dambouk Khpuos,Dambouk Khpuos,0885217220,KAM,Kampot,Kampot,Authorized Dealer/ Authorized Agent,In effect,10.776852,104.568238,KAMA029 | Dambouk Khpuos | Dambouk Khpuos | 0885217220 | KAM | Kampot | Kampot
KAMA030,Dong Tong,Dong Tong,068539366,KAM,Kampot,Kampot,Authorized Dealer/ Authorized Agent,In effect,10.62885,104.47109,KAMA030 | Dong Tong | Dong Tong | 068539366 | KAM | Kampot | Kampot
KAMA031,KampongTrach,KampongTrach,067740007,KAM,Kampot,Kampot,Authorized Dealer/ Authorized Agent,In effect,10.447786,104.437666,KAMA031 | KampongTrach | KampongTrach | 067740007 | KAM | Kampot | Kampot
KAMP001,Kampot,Kampot,0979758982,KAM,Kampot,Kampot,Post office,In effect,10.619812,104.182473,KAMP001 | Kampot | Kampot | 0979758982 | KAM | Kampot | Kampot
KAMS001,Krang Ampil,Krang Ampil,0972141011,KAM,Kampot,Kampot,Post office,In effect,10.6143893,104.1821269,KAMS001 | Krang Ampil | Krang Ampil | 0972141011 | KAM | Kampot | Kampot
KAMS002,Tuk Meas Khang Lech,Tuk Meas Khang Lech,0888808908,KAM,Kampot,Kampot,Post office,In effect,10.667472,104.560635,KAMS002 | Tuk Meas Khang Lech | Tuk Meas Khang Lech | 0888808908 | KAM | Kampot | Kampot
KAMS003,Satv Pong,Satv Pong,0976095490,KAM,Kampot,Kampot,Post office,In effect,10.835357,104.454835,KAMS003 | Satv Pong | Satv Pong | 0976095490 | KAM | Kampot | Kampot
SPEA006,Chhuk,Chhuk,0888269777,KAM,Kampot,Kampot,Authorized Dealer/ Authorized Agent,In effect,11.131556,104.151154,SPEA006 | Chhuk | Chhuk | 0888269777 | KAM | Kampot | Kampot
KANA001,Preaek Chrey,Preaek Chrey,0885014445,KAN,Kandal,Kandal,Authorized Dealer/ Authorized Agent,In effect,10.96737,105.10423,KANA001 | Preaek Chrey | Preaek Chrey | 0885014445 | KAN | Kandal | Kandal
KANA002,Sampov Pun 01,Sampov Pun 01,0975299991,KAN,Kandal,Kandal,Authorized Dealer/ Authorized Agent,In effect,11.027526,105.05863,KANA002 | Sampov Pun 01 | Sampov Pun 01 | 0975299991 | KAN | Kandal | Kandal
KANA003,Pou Ban 01,Pou Ban 01,0975443338,KAN,Kandal,Kandal,Authorized Dealer/ Authorized Agent,In effect,11.195817,105.061087,KANA003 | Pou Ban 01 | Pou Ban 01 | 0975443338 | KAN | Kandal | Kandal
KANA004,Settak bou,Settak bou,0315055568,KAN,Kandal,Kandal,Authorized Dealer/ Authorized Agent,In effect,11.455657,105.029998,KANA004 | Settak bou | Settak bou | 0315055568 | KAN | Kandal | Kandal
KANA005,Svay Rolum,Svay Rolum,066666603,KAN,Kandal,Kandal,Authorized Dealer/ Authorized Agent,In effect,11.455178,104.999608,KANA005 | Svay Rolum | Svay Rolum | 066666603 | KAN | Kandal | Kandal
KANA006,Krang Youv,Krang Youv,090833458,KAN,Kandal,Kandal,Authorized Dealer/ Authorized Agent,In effect,11.292181,104.947988,KANA006 | Krang Youv | Krang Youv | 090833458 | KAN | Kandal | Kandal
KANA007,Khpob,Khpob,0977507013,KAN,Kandal,Kandal,Authorized Dealer/ Authorized Agent,In effect,11.265877,105.033555,KANA007 | Khpob | Khpob | 0977507013 | KAN | Kandal | Kandal
KANA008,Khpob Ateav,Khpob Ateav,068686963,KAN,Kandal,Kandal,Authorized Dealer/ Authorized Agent,In effect,11.058028,105.191104,KANA008 | Khpob Ateav | Khpob Ateav | 068686963 | KAN | Kandal | Kandal
KANA009,Kokir Thum,Kokir Thum,0884446153,KAN,Kandal,Kandal,Authorized Dealer/ Authorized Agent,In effect,11.3343,105.241244,KANA009 | Kokir Thum | Kokir Thum | 0884446153 | KAN | Kandal | Kandal
KANA010,Samraong Thum,Samraong Thum,0977300096,KAN,Kandal,Kandal,Authorized Dealer/ Authorized Agent,In effect,11.398369,105.236634,KANA010 | Samraong Thum | Samraong Thum | 0977300096 | KAN | Kandal | Kandal
KANA011,Cheung Kaeub,Cheung Kaeub,068220872,KAN,Kandal,Kandal,Authorized Dealer/ Authorized Agent,In effect,11.42506,104.875069,KANA011 | Cheung Kaeub | Cheung Kaeub | 068220872 | KAN | Kandal | Kandal
KANA012,Dei Ed,Dei Ed,0316843333,KAN,Kandal,Kandal,Authorized Dealer/ Authorized Agent,In effect,11.493478,105.097377,KANA012 | Dei Ed | Dei Ed | 0316843333 | KAN | Kandal | Kandal
KANA013,Chheu Teal 01,Chheu Teal 01,0889779949,KAN,Kandal,Kandal,Authorized Dealer/ Authorized Agent,In effect,11.464371,104.977234,KANA013 | Chheu Teal 01 | Chheu Teal 01 | 0889779949 | KAN | Kandal | Kandal
KANA014,Chheu Teal 02,Chheu Teal 02,0884879666,KAN,Kandal,Kandal,Authorized Dealer/ Authorized Agent,In effect,11.468815,105.025253,KANA014 | Chheu Teal 02 | Chheu Teal 02 | 0884879666 | KAN | Kandal | Kandal
KANA017,Preaek Anhchanh,Preaek Anhchanh,0974680111,KAN,Kandal,Kandal,Authorized Dealer/ Authorized Agent,In effect,11.741298,104.98207,KANA017 | Preaek Anhchanh | Preaek Anhchanh | 0974680111 | KAN | Kandal | Kandal
KANA018,Roka Kaong Ti Muoy,Roka Kaong Ti Muoy,0719695959,KAN,Kandal,Kandal,Authorized Dealer/ Authorized Agent,In effect,11.848625,104.994513,KANA018 | Roka Kaong Ti Muoy | Roka Kaong Ti Muoy | 0719695959 | KAN | Kandal | Kandal
KANA019,Kampong Luong,Kampong Luong,0314000044,KAN,Kandal,Kandal,Authorized Dealer/ Authorized Agent,In effect,11.819205,104.802207,KANA019 | Kampong Luong | Kampong Luong | 0314000044 | KAN | Kandal | Kandal
KANA020,Preaek Koy,Preaek Koy,099903002,KAN,Kandal,Kandal,Authorized Dealer/ Authorized Agent,In effect,11.367409,105.004007,KANA020 | Preaek Koy | Preaek Koy | 099903002 | KAN | Kandal | Kandal
KANA021,Preaek Hour 01,Preaek Hour 01,,KAN,Kandal,Kandal,Authorized Dealer/ Authorized Agent,In effect,11.456473,104.932033,KANA021 | Preaek Hour 01 | Preaek Hour 01 | KAN | Kandal | Kandal
KANA022,Cheung Kaeub,Cheung Kaeub,0885777469,KAN,Kandal,Kandal,Authorized Dealer/ Authorized Agent,In effect,11.439455,104.892452,KANA022 | Cheung Kaeub | Cheung Kaeub | 0885777469 | KAN | Kandal | Kandal
KANA023,Preaek Hour 02,Preaek Hour 02,0716667378,KAN,Kandal,Kandal,Authorized Dealer/ Authorized Agent,In effect,11.4466,104.88001,KANA023 | Preaek Hour 02 | Preaek Hour 02 | 0716667378 | KAN | Kandal | Kandal
KANA024,Daeum Rues,Daeum Rues,066441450,KAN,Kandal,Kandal,Authorized Dealer/ Authorized Agent,In effect,11.418343,104.791698,KANA024 | Daeum Rues | Daeum Rues | 066441450 | KAN | Kandal | Kandal
KANA026,Traeuy Sla,Traeuy Sla,0975529539,KAN,Kandal,Kandal,Authorized Dealer/ Authorized Agent,In effect,11.319958,105.067528,KANA026 | Traeuy Sla | Traeuy Sla | 0975529539 | KAN | Kandal | Kandal
KANA027,Preaek Ruessei,Preaek Ruessei,0712032211,KAN,Kandal,Kandal,Authorized Dealer/ Authorized Agent,In effect,11.470329,104.936806,KANA027 | Preaek Ruessei | Preaek Ruessei | 0712032211 | KAN | Kandal | Kandal
KANA028,Siem Reab,Siem Reab,0312481818,KAN,Kandal,Kandal,Authorized Dealer/ Authorized Agent,In effect,11.389382,104.863461,KANA028 | Siem Reab | Siem Reab | 0312481818 | KAN | Kandal | Kandal
KANA029,Kampong Samnanh,Kampong Samnanh,060587879,KAN,Kandal,Kandal,Authorized Dealer/ Authorized Agent,In effect,11.460466,104.942209,KANA029 | Kampong Samnanh | Kampong Samnanh | 060587879 | KAN | Kandal | Kandal
KANA031,Preaek Ta Meak,Preaek Ta Meak,0975428202,KAN,Kandal,Kandal,Authorized Dealer/ Authorized Agent,In effect,11.749088,105.011697,KANA031 | Preaek Ta Meak | Preaek Ta Meak | 0975428202 | KAN | Kandal | Kandal
KANA033,Preaek Rey,Preaek Rey,0716404444,KAN,Kandal,Kandal,Authorized Dealer/ Authorized Agent,In effect,11.528229,105.14387,KANA033 | Preaek Rey | Preaek Rey | 0716404444 | KAN | Kandal | Kandal
KANA034,Roka Khpuos,Roka Khpuos,066988835,KAN,Kandal,Kandal,Authorized Dealer/ Authorized Agent,In effect,11.420457,104.983317,KANA034 | Roka Khpuos | Roka Khpuos | 066988835 | KAN | Kandal | Kandal
KANA036,Sambuor Meas,Sambuor Meas,0886896222,KAN,Kandal,Kandal,Authorized Dealer/ Authorized Agent,In effect,11.667183,104.866842,KANA036 | Sambuor Meas | Sambuor Meas | 0886896222 | KAN | Kandal | Kandal
KANA037,Sambuor,Sambuor,0978760303,KAN,Kandal,Kandal,Authorized Dealer/ Authorized Agent,In effect,11.47773,105.162037,KANA037 | Sambuor | Sambuor | 0978760303 | KAN | Kandal | Kandal
KANA038,Preaek Ruessei,Preaek Ruessei,068282262,KAN,Kandal,Kandal,Authorized Dealer/ Authorized Agent,In effect,11.4686,105.209882,KANA038 | Preaek Ruessei | Preaek Ruessei | 068282262 | KAN | Kandal | Kandal
KANA039,Chheu Khmau,Chheu Khmau,068688885,KAN,Kandal,Kandal,Authorized Dealer/ Authorized Agent,In effect,11.048601,105.077687,KANA039 | Chheu Khmau | Chheu Khmau | 068688885 | KAN | Kandal | Kandal
KANA040,Sampov Pun 02,Sampov Pun 02,0885852222,KAN,Kandal,Kandal,Authorized Dealer/ Authorized Agent,In effect,10.954919,105.07873,KANA040 | Sampov Pun 02 | Sampov Pun 02 | 0885852222 | KAN | Kandal | Kandal
KANA041,Leuk Daek,Leuk Daek,0887000585,KAN,Kandal,Kandal,Authorized Dealer/ Authorized Agent,In effect,11.130317,105.130143,KANA041 | Leuk Daek | Leuk Daek | 0887000585 | KAN | Kandal | Kandal
KANA042,Pou Ban 02,Pou Ban 02,066350114,KAN,Kandal,Kandal,Authorized Dealer/ Authorized Agent,In effect,11.182247,104.074302,KANA042 | Pou Ban 02 | Pou Ban 02 | 066350114 | KAN | Kandal | Kandal
KANA043,Puk Ruessei,Puk Ruessei,0978333874,KAN,Kandal,Kandal,Authorized Dealer/ Authorized Agent,In effect,11.684915,104.968129,KANA043 | Puk Ruessei | Puk Ruessei | 0978333874 | KAN | Kandal | Kandal
KANA044,Svay Romiet 01,Svay Romiet 01,0718044433,KAN,Kandal,Kandal,Authorized Dealer/ Authorized Agent,In effect,11.795103,105.015382,KANA044 | Svay Romiet 01 | Svay Romiet 01 | 0718044433 | KAN | Kandal | Kandal
KANA045,Svay Romiet 02,Svay Romiet 02,068401902,KAN,Kandal,Kandal,Authorized Dealer/ Authorized Agent,In effect,11.8122,105.038624,KANA045 | Svay Romiet 02 | Svay Romiet 02 | 068401902 | KAN | Kandal | Kandal
KANA046,Prek Krabao Ti 2,Prek Krabao Ti 2,066666017,KAN,Kandal,Kandal,Authorized Dealer/ Authorized Agent,In effect,11.6601777,104.96405,KANA046 | Prek Krabao Ti 2 | Prek Krabao Ti 2 | 066666017 | KAN | Kandal | Kandal
KANA049,Roka,Roka,0885777469,KAN,Kandal,Kandal,Authorized Dealer/ Authorized Agent,In effect,11.451665,104.720281,KANA049 | Roka | Roka | 0885777469 | KAN | Kandal | Kandal
KANA066,Wat Prek Ampil,Wat Prek Ampil,010274262,KAN,Kandal,Kandal,Authorized Dealer/ Authorized Agent,In effect,11.647094,104.957062,KANA066 | Wat Prek Ampil | Wat Prek Ampil | 010274262 | KAN | Kandal | Kandal
KANP001,Ta Khmau,Ta Khmau,0716646043,KAN,Kandal,Kandal,Post office,In effect,11.4777335,104.9487032,KANP001 | Ta Khmau | Ta Khmau | 0716646043 | KAN | Kandal | Kandal
KANS001,Ta Khmao,Ta Khmao,,KAN,Kandal,Kandal,Post office,In effect,11.473225,104.94918,KANS001 | Ta Khmao | Ta Khmao | KAN | Kandal | Kandal
KANS002,Kokir,Kokir,,KAN,Kandal,Kandal,Post office,In effect,11.511094,105.048311,KANS002 | Kokir | Kokir | KAN | Kandal | Kandal
KANS003,Preaek Thmei,Preaek Thmei,,KAN,Kandal,Kandal,Post office,In effect,11.133705,105.057119,KANS003 | Preaek Thmei | Preaek Thmei | KAN | Kandal | Kandal
KANS004,Preaek Anhchanh,Preaek Anhchanh,,KAN,Kandal,Kandal,Post office,In effect,11.738,104.9776,KANS004 | Preaek Anhchanh | Preaek Anhchanh | KAN | Kandal | Kandal
KANS005,Baek Chan,Baek Chan,,KAN,Kandal,Kandal,Post office,In effect,11.509273,104.741863,KANS005 | Baek Chan | Baek Chan | KAN | Kandal | Kandal
KEPA001,Ou Krasar,Ou Krasar,0889126653,KEP,Kep,Kep,Authorized Dealer/ Authorized Agent,In effect,10.55536,104.2883,KEPA001 | Ou Krasar | Ou Krasar | 0889126653 | KEP | Kep | Kep
KEPA002,Damnak Chang Aeur,Damnak Chang Aeur,067872737,KEP,Kep,Kep,Authorized Dealer/ Authorized Agent,In effect,10.576537,104.390497,KEPA002 | Damnak Chang Aeur | Damnak Chang Aeur | 067872737 | KEP | Kep | Kep
DVCZ5,Vehicle Team Z5,Vehicle Team Z5,,KOH,Koh Kong,Koh Kong,Transportation Team/ Delivery Team/ Shipping Team,In effect,,,DVCZ5 | Vehicle Team Z5 | Vehicle Team Z5 | KOH | Koh Kong | Koh Kong
KOHA001,Dang Tung,Dang Tung,0973415168,KOH,Koh Kong,Koh Kong,Authorized Dealer/ Authorized Agent,In effect,11.595865,102.979171,KOHA001 | Dang Tung | Dang Tung | 0973415168 | KOH | Koh Kong | Koh Kong
KOHA002,Trapeang Rung,Trapeang Rung,068645654,KOH,Koh Kong,Koh Kong,Authorized Dealer/ Authorized Agent,In effect,11.379754,103.257654,KOHA002 | Trapeang Rung | Trapeang Rung | 068645654 | KOH | Koh Kong | Koh Kong
KOHA003,Andoung Tuek,Andoung Tuek,068848687,KOH,Koh Kong,Koh Kong,Authorized Dealer/ Authorized Agent,In effect,11.18609,103.468786,KOHA003 | Andoung Tuek | Andoung Tuek | 068848687 | KOH | Koh Kong | Koh Kong
KOHA004,Dang Tung 02,Dang Tung 02,0718099992,KOH,Koh Kong,Koh Kong,Authorized Dealer/ Authorized Agent,In effect,11.608304,102.982362,KOHA004 | Dang Tung 02 | Dang Tung 02 | 0718099992 | KOH | Koh Kong | Koh Kong
KOHA005,Srae Ambel,Srae Ambel,0716668661,KOH,Koh Kong,Koh Kong,Authorized Dealer/ Authorized Agent,In effect,11.1860333,103.4687297,KOHA005 | Srae Ambel | Srae Ambel | 0716668661 | KOH | Koh Kong | Koh Kong
KOHA006,Srae Ambel,Srae Ambel,0975375352,KOH,Koh Kong,Koh Kong,Authorized Dealer/ Authorized Agent,In effect,11.122887,103.745922,KOHA006 | Srae Ambel | Srae Ambel | 0975375352 | KOH | Koh Kong | Koh Kong
KOHA007,Phnhi Meas,Phnhi Meas,0312226422,KOH,Koh Kong,Koh Kong,Authorized Dealer/ Authorized Agent,In effect,10.990343,103.2221,KOHA007 | Phnhi Meas | Phnhi Meas | 0312226422 | KOH | Koh Kong | Koh Kong
KOHA008,Pak Khlang,Pak Khlang,0717330666,KOH,Koh Kong,Koh Kong,Authorized Dealer/ Authorized Agent,In effect,11.642346,102.922879,KOHA008 | Pak Khlang | Pak Khlang | 0717330666 | KOH | Koh Kong | Koh Kong
KOHA009,Ruessei Chrum,Ruessei Chrum,0973440505,KOH,Koh Kong,Koh Kong,Authorized Dealer/ Authorized Agent,In effect,11.683293,103.44224,KOHA009 | Ruessei Chrum | Ruessei Chrum | 0973440505 | KOH | Koh Kong | Koh Kong
KOHA010,Smach Mean Chey,Smach Mean Chey,0715443366,KOH,Koh Kong,Koh Kong,Authorized Dealer/ Authorized Agent,In effect,11.61593,102.98466,KOHA010 | Smach Mean Chey | Smach Mean Chey | 0715443366 | KOH | Koh Kong | Koh Kong
KOHA011,Kong deab,Kong deab,068845698,KOH,Koh Kong,Koh Kong,Authorized Dealer/ Authorized Agent,In effect,,,KOHA011 | Kong deab | Kong deab | 068845698 | KOH | Koh Kong | Koh Kong
KOHA012,Cham Yeam,Cham Yeam,0319993899,KOH,Koh Kong,Koh Kong,Authorized Dealer/ Authorized Agent,In effect,11.383526,102.5550684,KOHA012 | Cham Yeam | Cham Yeam | 0319993899 | KOH | Koh Kong | Koh Kong
KOHP001,Khemmeakrakphumin,Khemmeakrakphumin,0975942942,KOH,Koh Kong,Koh Kong,Post office,In effect,11.61075,102.978804,KOHP001 | Khemmeakrakphumin | Khemmeakrakphumin | 0975942942 | KOH | Koh Kong | Koh Kong
KOHS001,Smach Mean Chey,Smach Mean Chey,0972920124,KOH,Koh Kong,Koh Kong,Post office,In effect,11.6154,102.98474,KOHS001 | Smach Mean Chey | Smach Mean Chey | 0972920124 | KOH | Koh Kong | Koh Kong
HUBKRA01,Hub vùng HUBKRA01,Hub vùng HUBKRA01,,KRA,Kratie,Kratie,Regional Warehouse,Out of effect,11.600572823206011,105.70856773843626,HUBKRA01 | Hub vùng HUBKRA01 | Hub vùng HUBKRA01 | KRA | Kratie | Kratie
HZ5P01,Head office Z5,Head office Z5,,KRA,Kratie,Kratie,Phòng ban,In effect,,,HZ5P01 | Head office Z5 | Head office Z5 | KRA | Kratie | Kratie
KRAA001,Sambok,Sambok,0972626765,KRA,Kratie,Kratie,Authorized Dealer/ Authorized Agent,In effect,12.5903,106.0265,KRAA001 | Sambok | Sambok | 0972626765 | KRA | Kratie | Kratie
KRAA003,Chhloung,Chhloung,0976111877,KRA,Kratie,Kratie,Authorized Dealer/ Authorized Agent,In effect,12.252597,105.977067,KRAA003 | Chhloung | Chhloung | 0976111877 | KRA | Kratie | Kratie
KRAA004,Kbal Damrei,Kbal Damrei,0882720200,KRA,Kratie,Kratie,Authorized Dealer/ Authorized Agent,In effect,12.86919,106.198153,KRAA004 | Kbal Damrei | Kbal Damrei | 0882720200 | KRA | Kratie | Kratie
KRAA005,Svay Chreah,Svay Chreah,090440206,KRA,Kratie,Kratie,Authorized Dealer/ Authorized Agent,In effect,12.320298,106.324222,KRAA005 | Svay Chreah | Svay Chreah | 090440206 | KRA | Kratie | Kratie
KRAA006,Kranhung Saen Chey,Kranhung Saen Chey,0884939990,KRA,Kratie,Kratie,Authorized Dealer/ Authorized Agent,In effect,12.129537,106.653759,KRAA006 | Kranhung Saen Chey | Kranhung Saen Chey | 0884939990 | KRA | Kratie | Kratie
KRAA007,Ou Krieng,Ou Krieng,068636161,KRA,Kratie,Kratie,Authorized Dealer/ Authorized Agent,In effect,13.043829,106.180606,KRAA007 | Ou Krieng | Ou Krieng | 068636161 | KRA | Kratie | Kratie
KRAA008,Sambour,Sambour,0886676766,KRA,Kratie,Kratie,Authorized Dealer/ Authorized Agent,In effect,12.776424,105.964835,KRAA008 | Sambour | Sambour | 0886676766 | KRA | Kratie | Kratie
KRAA009,Sandan,Sandan,0314946555,KRA,Kratie,Kratie,Authorized Dealer/ Authorized Agent,In effect,12.689547,106.021083,KRAA009 | Sandan | Sandan | 0314946555 | KRA | Kratie | Kratie
KRAA010,Chambak,Chambak,0882220686,KRA,Kratie,Kratie,Authorized Dealer/ Authorized Agent,In effect,12.278305,105.801464,KRAA010 | Chambak | Chambak | 0882220686 | KRA | Kratie | Kratie
KRAA012,Kanhchor,Kanhchor,068522577,KRA,Kratie,Kratie,Authorized Dealer/ Authorized Agent,In effect,12.33255,106.052751,KRAA012 | Kanhchor | Kanhchor | 068522577 | KRA | Kratie | Kratie
KRAP001,Kracheh,Kracheh,0979171178,KRA,Kratie,Kratie,Post office,In effect,12.482385,106.020364,KRAP001 | Kracheh | Kracheh | 0979171178 | KRA | Kratie | Kratie
KRAS001,Kracheh,Kracheh,0719997744,KRA,Kratie,Kratie,Post office,In effect,12.4896,106.016,KRAS001 | Kracheh | Kracheh | 0719997744 | KRA | Kratie | Kratie
KRAS002,Snuol,Snuol,0717370643,KRA,Kratie,Kratie,Post office,In effect,12.0746,106.4211,KRAS002 | Snuol | Snuol | 0717370643 | KRA | Kratie | Kratie
KRAS003,Chhloung,Chhloung,0719778997,KRA,Kratie,Kratie,Post office,In effect,12.2569,105.9602,KRAS003 | Chhloung | Chhloung | 0719778997 | KRA | Kratie | Kratie
KRAS004,Sambour,Sambour,0976969537,KRA,Kratie,Kratie,Post office,In effect,12.774535,105.964866,KRAS004 | Sambour | Sambour | 0976969537 | KRA | Kratie | Kratie
KRAS005,Preaek Prasab,Preaek Prasab,0977637301,KRA,Kratie,Kratie,Post office,In effect,12.35199,106.03661,KRAS005 | Preaek Prasab | Preaek Prasab | 0977637301 | KRA | Kratie | Kratie
KVKRA01,Kho vùng KRATIE,Kho vùng KRATIE,,KRA,Kratie,Kratie,Regional Warehouse,In effect,,,KVKRA01 | Kho vùng KRATIE | Kho vùng KRATIE | KRA | Kratie | Kratie
DVCMEGA1,MEGA transport team,MEGA transport team,,MEGA,MEGA HUB,MEGA HUB,Transportation Team/ Delivery Team/ Shipping Team,In effect,11.63907,104.85378,DVCMEGA1 | MEGA transport team | MEGA transport team | MEGA | MEGA HUB | MEGA HUB
MEGA1,MEGA1,MEGA1,,MEGA,MEGA HUB,MEGA HUB,Operations Center,In effect,11.631082846238561,104.85548753809898,MEGA1 | MEGA1 | MEGA1 | MEGA | MEGA HUB | MEGA HUB
HEADP01,Head Office Center,Head Office Center,,MFEHQ,Metfone Express HQ,Metfone Express HQ,Phòng ban,In effect,,,HEADP01 | Head Office Center | Head Office Center | MFEHQ | Metfone Express HQ | Metfone Express HQ
TN3,Thử nghiệm 3-TTCNTT BAT,Thử nghiệm 3-TTCNTT BAT,,MFEHQ,Metfone Express HQ,Metfone Express HQ,Authorized Dealer/ Authorized Agent,Out of effect,,,TN3 | Thử nghiệm 3-TTCNTT BAT | Thử nghiệm 3-TTCNTT BAT | MFEHQ | Metfone Express HQ | Metfone Express HQ
MONA001,Chong Phlah,Chong Phlah,0979312777,MON,Mondul Kiri,Mondul Kiri,Authorized Dealer/ Authorized Agent,In effect,12.614578,106.876878,MONA001 | Chong Phlah | Chong Phlah | 0979312777 | MON | Mondul Kiri | Mondul Kiri
MONA002,Dak Dam,Dak Dam,0717557043,MON,Mondul Kiri,Mondul Kiri,Authorized Dealer/ Authorized Agent,In effect,12.423385,107.312825,MONA002 | Dak Dam | Dak Dam | 0717557043 | MON | Mondul Kiri | Mondul Kiri
MONA003,Srae Sangkum,Srae Sangkum,0977076136,MON,Mondul Kiri,Mondul Kiri,Authorized Dealer/ Authorized Agent,In effect,13.075742,107.044095,MONA003 | Srae Sangkum | Srae Sangkum | 0977076136 | MON | Mondul Kiri | Mondul Kiri
MONA004,Bu Sra,Bu Sra,0976417077,MON,Mondul Kiri,Mondul Kiri,Authorized Dealer/ Authorized Agent,In effect,12.541149,107.431679,MONA004 | Bu Sra | Bu Sra | 0976417077 | MON | Mondul Kiri | Mondul Kiri
MONA005,Pu Chrey,Pu Chrey,0882727972,MON,Mondul Kiri,Mondul Kiri,Authorized Dealer/ Authorized Agent,In effect,12.684758,107.218298,MONA005 | Pu Chrey | Pu Chrey | 0882727972 | MON | Mondul Kiri | Mondul Kiri
MONA006,Srae Ampum,Srae Ampum,066924904,MON,Mondul Kiri,Mondul Kiri,Authorized Dealer/ Authorized Agent,In effect,12.541868,107.337129,MONA006 | Srae Ampum | Srae Ampum | 066924904 | MON | Mondul Kiri | Mondul Kiri
MONA007,Srae Khtum,Srae Khtum,0714598999,MON,Mondul Kiri,Mondul Kiri,Authorized Dealer/ Authorized Agent,In effect,12.112262,106.886145,MONA007 | Srae Khtum | Srae Khtum | 0714598999 | MON | Mondul Kiri | Mondul Kiri
MONA008,Srae Chhuk,Srae Chhuk,0712300008,MON,Mondul Kiri,Mondul Kiri,Authorized Dealer/ Authorized Agent,In effect,12.139465,106.718123,MONA008 | Srae Chhuk | Srae Chhuk | 0712300008 | MON | Mondul Kiri | Mondul Kiri
MONP001,Mondulkiri,Mondulkiri,0716696816,MON,Mondul Kiri,Mondul Kiri,Post office,In effect,12.457818,107.187645,MONP001 | Mondulkiri | Mondulkiri | 0716696816 | MON | Mondul Kiri | Mondul Kiri
MONS001,Spean Mean Chey,Spean Mean Chey,0889604994,MON,Mondul Kiri,Mondul Kiri,Post office,In effect,12.454312,107.187197,MONS001 | Spean Mean Chey | Spean Mean Chey | 0889604994 | MON | Mondul Kiri | Mondul Kiri
ODDA001,Anlung Veaeng 01,Anlung Veaeng 01,0886855656,ODD,Otdar Meanchey,Otdar Meanchey,Authorized Dealer/ Authorized Agent,In effect,14.08214,104.095182,ODDA001 | Anlung Veaeng 01 | Anlung Veaeng 01 | 0886855656 | ODD | Otdar Meanchey | Otdar Meanchey
ODDA002,Anlung Veaeng 02,Anlung Veaeng 02,0972631463,ODD,Otdar Meanchey,Otdar Meanchey,Authorized Dealer/ Authorized Agent,In effect,14.232786,104.080505,ODDA002 | Anlung Veaeng 02 | Anlung Veaeng 02 | 0972631463 | ODD | Otdar Meanchey | Otdar Meanchey
ODDA003,Trapeang Tav,Trapeang Tav,0312224055,ODD,Otdar Meanchey,Otdar Meanchey,Authorized Dealer/ Authorized Agent,In effect,14.22539,103.897009,ODDA003 | Trapeang Tav | Trapeang Tav | 0312224055 | ODD | Otdar Meanchey | Otdar Meanchey
ODDA004,Trapeang Prasat 01,Trapeang Prasat 01,0714809488,ODD,Otdar Meanchey,Otdar Meanchey,Authorized Dealer/ Authorized Agent,In effect,14.19811,104.356795,ODDA004 | Trapeang Prasat 01 | Trapeang Prasat 01 | 0714809488 | ODD | Otdar Meanchey | Otdar Meanchey
ODDA005,Trapeang Prasat 02,Trapeang Prasat 02,0317535511,ODD,Otdar Meanchey,Otdar Meanchey,Authorized Dealer/ Authorized Agent,In effect,14.112373,104.342542,ODDA005 | Trapeang Prasat 02 | Trapeang Prasat 02 | 0317535511 | ODD | Otdar Meanchey | Otdar Meanchey
ODDA006,Samraong,Samraong,0719000048,ODD,Otdar Meanchey,Otdar Meanchey,Authorized Dealer/ Authorized Agent,In effect,14.177446,103.507004,ODDA006 | Samraong | Samraong | 0719000048 | ODD | Otdar Meanchey | Otdar Meanchey
ODDA007,Chong Kal,Chong Kal,066772668,ODD,Otdar Meanchey,Otdar Meanchey,Authorized Dealer/ Authorized Agent,In effect,13.961066,103.572905,ODDA007 | Chong Kal | Chong Kal | 066772668 | ODD | Otdar Meanchey | Otdar Meanchey
ODDA008,Kouk Mon,Kouk Mon,068819868,ODD,Otdar Meanchey,Otdar Meanchey,Authorized Dealer/ Authorized Agent,In effect,14.161922,103.288798,ODDA008 | Kouk Mon | Kouk Mon | 068819868 | ODD | Otdar Meanchey | Otdar Meanchey
ODDP001,Samraong,Samraong,0979520168,ODD,Otdar Meanchey,Otdar Meanchey,Post office,In effect,14.171544,103.511342,ODDP001 | Samraong | Samraong | 0979520168 | ODD | Otdar Meanchey | Otdar Meanchey
ODDS001,Samraong,Samraong,,ODD,Otdar Meanchey,Otdar Meanchey,Post office,Out of effect,14.17525,103.5071667,ODDS001 | Samraong | Samraong | ODD | Otdar Meanchey | Otdar Meanchey
ODDS002,Anlung Veaeng,Anlung Veaeng,0717751736,ODD,Otdar Meanchey,Otdar Meanchey,Post office,In effect,14.230011,104.0781543,ODDS002 | Anlung Veaeng | Anlung Veaeng | 0717751736 | ODD | Otdar Meanchey | Otdar Meanchey
ODDTEST,Otdar Meanchey,Otdar Meanchey,,ODD,Otdar Meanchey,Otdar Meanchey,Post office,Out of effect,,,ODDTEST | Otdar Meanchey | Otdar Meanchey | ODD | Otdar Meanchey | Otdar Meanchey
PAIA001,Pailin,Pailin,0977186678,PAI,Pailin,Pailin,Authorized Dealer/ Authorized Agent,In effect,12.857257,102.604963,PAIA001 | Pailin | Pailin | 0977186678 | PAI | Pailin | Pailin
PAIA002,Sala Krau,Sala Krau,0978877791,PAI,Pailin,Pailin,Authorized Dealer/ Authorized Agent,In effect,12.948435,102.591515,PAIA002 | Sala Krau | Sala Krau | 0978877791 | PAI | Pailin | Pailin
PAIA003,Stueng Kach,Stueng Kach,0883883383,PAI,Pailin,Pailin,Authorized Dealer/ Authorized Agent,In effect,12.934088,102.501392,PAIA003 | Stueng Kach | Stueng Kach | 0883883383 | PAI | Pailin | Pailin
PAIS001,Pailin,Pailin,,PAI,Pailin,Pailin,Post office,In effect,12.857211,102.604989,PAIS001 | Pailin | Pailin | PAI | Pailin | Pailin
DVCZ1,Vehicle Team Z1,Vehicle Team Z1,,PNP,Phnom Penh Branch,Phnom Penh Branch,Transportation Team/ Delivery Team/ Shipping Team,In effect,,,DVCZ1 | Vehicle Team Z1 | Vehicle Team Z1 | PNP | Phnom Penh Branch | Phnom Penh Branch
HZ1P01,Head Office Z1,Head Office Z1,,PNP,Phnom Penh Branch,Phnom Penh Branch,Phòng ban,In effect,,,HZ1P01 | Head Office Z1 | Head Office Z1 | PNP | Phnom Penh Branch | Phnom Penh Branch
PNPA001,Prey Sa,Prey Sa,,PNP,Phnom Penh Branch,Phnom Penh Branch,Authorized Dealer/ Authorized Agent,In effect,11.500609,104.858078,PNPA001 | Prey Sa | Prey Sa | PNP | Phnom Penh Branch | Phnom Penh Branch
PNPA002,Oulampik 01,Oulampik 01,066659268,PNP,Phnom Penh Branch,Phnom Penh Branch,Authorized Dealer/ Authorized Agent,In effect,11.55307,104.91135,PNPA002 | Oulampik 01 | Oulampik 01 | 066659268 | PNP | Phnom Penh Branch | Phnom Penh Branch
PNPA003,Tuek Thla 01,Tuek Thla 01,0312244786,PNP,Phnom Penh Branch,Phnom Penh Branch,Authorized Dealer/ Authorized Agent,In effect,11.556812,104.881281,PNPA003 | Tuek Thla 01 | Tuek Thla 01 | 0312244786 | PNP | Phnom Penh Branch | Phnom Penh Branch
PNPA004,Chaom Chau Ti Pir,Chaom Chau Ti Pir,,PNP,Phnom Penh Branch,Phnom Penh Branch,Authorized Dealer/ Authorized Agent,In effect,11.534467,104.84961,PNPA004 | Chaom Chau Ti Pir | Chaom Chau Ti Pir | PNP | Phnom Penh Branch | Phnom Penh Branch
PNPA005,Trapeang Thloeng 4,Trapeang Thloeng 4,068456594,PNP,Phnom Penh Branch,Phnom Penh Branch,Authorized Dealer/ Authorized Agent,In effect,11.531301,104.860961,PNPA005 | Trapeang Thloeng 4 | Trapeang Thloeng 4 | 068456594 | PNP | Phnom Penh Branch | Phnom Penh Branch
PNPA006,Kakab Ti Pir,Kakab Ti Pir,0883794940,PNP,Phnom Penh Branch,Phnom Penh Branch,Authorized Dealer/ Authorized Agent,In effect,11.563,104.8416,PNPA006 | Kakab Ti Pir | Kakab Ti Pir | 0883794940 | PNP | Phnom Penh Branch | Phnom Penh Branch
PNPA007,Dangkao,Dangkao,060285556,PNP,Phnom Penh Branch,Phnom Penh Branch,Authorized Dealer/ Authorized Agent,In effect,11.5153,104.8856,PNPA007 | Dangkao | Dangkao | 060285556 | PNP | Phnom Penh Branch | Phnom Penh Branch
PNPA008,Stueng Mean Chey Ti Bei,Stueng Mean Chey Ti Bei,0975702255,PNP,Phnom Penh Branch,Phnom Penh Branch,Authorized Dealer/ Authorized Agent,In effect,11.5293,104.8768,PNPA008 | Stueng Mean Chey Ti Bei | Stueng Mean Chey Ti Bei | 0975702255 | PNP | Phnom Penh Branch | Phnom Penh Branch
PNPA013,Kamboul,Kamboul,0883777126,PNP,Phnom Penh Branch,Phnom Penh Branch,Authorized Dealer/ Authorized Agent,In effect,11.4411,104.7519,PNPA013 | Kamboul | Kamboul | 0883777126 | PNP | Phnom Penh Branch | Phnom Penh Branch
PNPA016,Angk Snuol,Angk Snuol,0883999617,PNP,Phnom Penh Branch,Phnom Penh Branch,Authorized Dealer/ Authorized Agent,In effect,11.509205,104.750279,PNPA016 | Angk Snuol | Angk Snuol | 0883999617 | PNP | Phnom Penh Branch | Phnom Penh Branch
PNPA017,SOMOL MONORITH,SOMOL MONORITH,090614747,PNP,Phnom Penh Branch,Phnom Penh Branch,Authorized Dealer/ Authorized Agent,In effect,11.535556,104.761811,PNPA017 | SOMOL MONORITH | SOMOL MONORITH | 090614747 | PNP | Phnom Penh Branch | Phnom Penh Branch
PNPA019,Ta Nuon,Ta Nuon,090614747,PNP,Phnom Penh Branch,Phnom Penh Branch,Authorized Dealer/ Authorized Agent,In effect,11.535552,104.761817,PNPA019 | Ta Nuon | Ta Nuon | 090614747 | PNP | Phnom Penh Branch | Phnom Penh Branch
PNPA020,Tuol Svay Prey Ti Pir,Tuol Svay Prey Ti Pir,0888888086,PNP,Phnom Penh Branch,Phnom Penh Branch,Authorized Dealer/ Authorized Agent,In effect,11.551024,104.904515,PNPA020 | Tuol Svay Prey Ti Pir | Tuol Svay Prey Ti Pir | 0888888086 | PNP | Phnom Penh Branch | Phnom Penh Branch
PNPA022,Tien,Tien,0886939168,PNP,Phnom Penh Branch,Phnom Penh Branch,Authorized Dealer/ Authorized Agent,In effect,11.44122,104.855906,PNPA022 | Tien | Tien | 0886939168 | PNP | Phnom Penh Branch | Phnom Penh Branch
PNPA023,Chaom Chau Ti Pir,Chaom Chau Ti Pir,0883338139,PNP,Phnom Penh Branch,Phnom Penh Branch,Authorized Dealer/ Authorized Agent,In effect,11.52833,104.844216,PNPA023 | Chaom Chau Ti Pir | Chaom Chau Ti Pir | 0883338139 | PNP | Phnom Penh Branch | Phnom Penh Branch
PNPA024,Kakab Ti Muoy,Kakab Ti Muoy,068888127,PNP,Phnom Penh Branch,Phnom Penh Branch,Authorized Dealer/ Authorized Agent,In effect,11.561142,104.841369,PNPA024 | Kakab Ti Muoy | Kakab Ti Muoy | 068888127 | PNP | Phnom Penh Branch | Phnom Penh Branch
PNPA025,Chaom Chau Ti Muoy 01,Chaom Chau Ti Muoy 01,0889855597,PNP,Phnom Penh Branch,Phnom Penh Branch,Authorized Dealer/ Authorized Agent,In effect,11.531051,104.809553,PNPA025 | Chaom Chau Ti Muoy 01 | Chaom Chau Ti Muoy 01 | 0889855597 | PNP | Phnom Penh Branch | Phnom Penh Branch
PNPA026,Stueng Mean Chey Ti Muoy,Stueng Mean Chey Ti Muoy,0713440004,PNP,Phnom Penh Branch,Phnom Penh Branch,Authorized Dealer/ Authorized Agent,In effect,11.525871,104.875463,PNPA026 | Stueng Mean Chey Ti Muoy | Stueng Mean Chey Ti Muoy | 0713440004 | PNP | Phnom Penh Branch | Phnom Penh Branch
PNPA027,Boeng Tumpun Ti Pir,Boeng Tumpun Ti Pir,0972797979,PNP,Phnom Penh Branch,Phnom Penh Branch,Authorized Dealer/ Authorized Agent,In effect,11.514045,104.920608,PNPA027 | Boeng Tumpun Ti Pir | Boeng Tumpun Ti Pir | 0972797979 | PNP | Phnom Penh Branch | Phnom Penh Branch
PNPA028,Chaom Chau Ti Muoy 02,Chaom Chau Ti Muoy 02,0973004449,PNP,Phnom Penh Branch,Phnom Penh Branch,Authorized Dealer/ Authorized Agent,In effect,11.5215,104.8725,PNPA028 | Chaom Chau Ti Muoy 02 | Chaom Chau Ti Muoy 02 | 0973004449 | PNP | Phnom Penh Branch | Phnom Penh Branch
PNPA029,Stueng Mean Chey Ti Pir,Stueng Mean Chey Ti Pir,0719226226,PNP,Phnom Penh Branch,Phnom Penh Branch,Authorized Dealer/ Authorized Agent,In effect,11.524998,104.89214,PNPA029 | Stueng Mean Chey Ti Pir | Stueng Mean Chey Ti Pir | 0719226226 | PNP | Phnom Penh Branch | Phnom Penh Branch
PNPA030,Stueng Mean Chey Ti Muoy,Stueng Mean Chey Ti Muoy,068997172,PNP,Phnom Penh Branch,Phnom Penh Branch,Authorized Dealer/ Authorized Agent,In effect,11.548701,104.896919,PNPA030 | Stueng Mean Chey Ti Muoy | Stueng Mean Chey Ti Muoy | 068997172 | PNP | Phnom Penh Branch | Phnom Penh Branch
PNPA031,Dangkao 01,Dangkao 01,0978287070,PNP,Phnom Penh Branch,Phnom Penh Branch,Authorized Dealer/ Authorized Agent,In effect,11.5064,104.8867,PNPA031 | Dangkao 01 | Dangkao 01 | 0978287070 | PNP | Phnom Penh Branch | Phnom Penh Branch
PNPA032,Spean Thma,Spean Thma,0882212222,PNP,Phnom Penh Branch,Phnom Penh Branch,Authorized Dealer/ Authorized Agent,In effect,11.4607,104.8898,PNPA032 | Spean Thma | Spean Thma | 0882212222 | PNP | Phnom Penh Branch | Phnom Penh Branch
PNPA033,Cheung Aek,Cheung Aek,0889179899,PNP,Phnom Penh Branch,Phnom Penh Branch,Authorized Dealer/ Authorized Agent,In effect,11.495626,104.893718,PNPA033 | Cheung Aek | Cheung Aek | 0889179899 | PNP | Phnom Penh Branch | Phnom Penh Branch
PNPA034,Dangkao 02,Dangkao 02,0889501199,PNP,Phnom Penh Branch,Phnom Penh Branch,Authorized Dealer/ Authorized Agent,In effect,11.43287,105.59722,PNPA034 | Dangkao 02 | Dangkao 02 | 0889501199 | PNP | Phnom Penh Branch | Phnom Penh Branch
PNPA035,Ruessei Kaev 01,Ruessei Kaev 01,0978252064,PNP,Phnom Penh Branch,Phnom Penh Branch,Authorized Dealer/ Authorized Agent,In effect,11.612098,104.916483,PNPA035 | Ruessei Kaev 01 | Ruessei Kaev 01 | 0978252064 | PNP | Phnom Penh Branch | Phnom Penh Branch
PNPA036,Phsar Daeum Kor,Phsar Daeum Kor,067444429,PNP,Phnom Penh Branch,Phnom Penh Branch,Authorized Dealer/ Authorized Agent,In effect,11.5558,104.903971,PNPA036 | Phsar Daeum Kor | Phsar Daeum Kor | 067444429 | PNP | Phnom Penh Branch | Phnom Penh Branch
PNPA037,Ruessei Kaev 02,Ruessei Kaev 02,0977779525,PNP,Phnom Penh Branch,Phnom Penh Branch,Authorized Dealer/ Authorized Agent,In effect,11.60771,104.910754,PNPA037 | Ruessei Kaev 02 | Ruessei Kaev 02 | 0977779525 | PNP | Phnom Penh Branch | Phnom Penh Branch
PNPA038,Kouk Khleang,Kouk Khleang,0884006677,PNP,Phnom Penh Branch,Phnom Penh Branch,Authorized Dealer/ Authorized Agent,In effect,11.597575,104.868313,PNPA038 | Kouk Khleang | Kouk Khleang | 0884006677 | PNP | Phnom Penh Branch | Phnom Penh Branch
PNPA039,Phnum Penh Thmei,Phnum Penh Thmei,0885712259,PNP,Phnom Penh Branch,Phnom Penh Branch,Authorized Dealer/ Authorized Agent,In effect,11.572758,104.871636,PNPA039 | Phnum Penh Thmei | Phnum Penh Thmei | 0885712259 | PNP | Phnom Penh Branch | Phnom Penh Branch
PNPA040,Tuek Thla 02,Tuek Thla 02,0973333018,PNP,Phnom Penh Branch,Phnom Penh Branch,Authorized Dealer/ Authorized Agent,In effect,11.553224,104.885042,PNPA040 | Tuek Thla 02 | Tuek Thla 02 | 0973333018 | PNP | Phnom Penh Branch | Phnom Penh Branch
PNPA041,Oulampik 02,Oulampik 02,0976606888,PNP,Phnom Penh Branch,Phnom Penh Branch,Authorized Dealer/ Authorized Agent,In effect,11.554833,104.910783,PNPA041 | Oulampik 02 | Oulampik 02 | 0976606888 | PNP | Phnom Penh Branch | Phnom Penh Branch
PNPA043,Preaek Pra,Preaek Pra,067426467,PNP,Phnom Penh Branch,Phnom Penh Branch,Authorized Dealer/ Authorized Agent,In effect,11.5047,104.9453,PNPA043 | Preaek Pra | Preaek Pra | 067426467 | PNP | Phnom Penh Branch | Phnom Penh Branch
PNPA044,Phsar Chas,Phsar Chas,0883633319,PNP,Phnom Penh Branch,Phnom Penh Branch,Authorized Dealer/ Authorized Agent,In effect,11.572105,104.924878,PNPA044 | Phsar Chas | Phsar Chas | 0883633319 | PNP | Phnom Penh Branch | Phnom Penh Branch
PNPA045,Boeng Proluet,Boeng Proluet,0976333853,PNP,Phnom Penh Branch,Phnom Penh Branch,Authorized Dealer/ Authorized Agent,In effect,11.561033,104.91571,PNPA045 | Boeng Proluet | Boeng Proluet | 0976333853 | PNP | Phnom Penh Branch | Phnom Penh Branch
PNPA046,Chaom Chau Ti Bei 01,Chaom Chau Ti Bei 01,066782866,PNP,Phnom Penh Branch,Phnom Penh Branch,Authorized Dealer/ Authorized Agent,In effect,11.532243,104.832501,PNPA046 | Chaom Chau Ti Bei 01 | Chaom Chau Ti Bei 01 | 066782866 | PNP | Phnom Penh Branch | Phnom Penh Branch
PNPA047,Phsar Thmei Ti Bei,Phsar Thmei Ti Bei,0886785800,PNP,Phnom Penh Branch,Phnom Penh Branch,Authorized Dealer/ Authorized Agent,In effect,11.567417,104.92398,PNPA047 | Phsar Thmei Ti Bei | Phsar Thmei Ti Bei | 0886785800 | PNP | Phnom Penh Branch | Phnom Penh Branch
PNPA048,Chrang Chamreh Ti Pir,Chrang Chamreh Ti Pir,0714224400,PNP,Phnom Penh Branch,Phnom Penh Branch,Authorized Dealer/ Authorized Agent,In effect,11.630997,104.903476,PNPA048 | Chrang Chamreh Ti Pir | Chrang Chamreh Ti Pir | 0714224400 | PNP | Phnom Penh Branch | Phnom Penh Branch
PNPA051,Tuek L'ak Ti Bei,Tuek L'ak Ti Bei,066841666,PNP,Phnom Penh Branch,Phnom Penh Branch,Authorized Dealer/ Authorized Agent,In effect,11.55678,104.893393,PNPA051 | Tuek L'ak Ti Bei | Tuek L'ak Ti Bei | 066841666 | PNP | Phnom Penh Branch | Phnom Penh Branch
PNPA052,Chak Angrae Kraom,Chak Angrae Kraom,0717102101,PNP,Phnom Penh Branch,Phnom Penh Branch,Authorized Dealer/ Authorized Agent,In effect,11.50926,104.937224,PNPA052 | Chak Angrae Kraom | Chak Angrae Kraom | 0717102101 | PNP | Phnom Penh Branch | Phnom Penh Branch
PNPA055,Boeng Tumpun Ti Muoy,Boeng Tumpun Ti Muoy,0972888509,PNP,Phnom Penh Branch,Phnom Penh Branch,Authorized Dealer/ Authorized Agent,In effect,11.520161,104.916818,PNPA055 | Boeng Tumpun Ti Muoy | Boeng Tumpun Ti Muoy | 0972888509 | PNP | Phnom Penh Branch | Phnom Penh Branch
PNPA059,Phsar Toch,Phsar Toch,0979994030,PNP,Phnom Penh Branch,Phnom Penh Branch,Authorized Dealer/ Authorized Agent,In effect,104.916787,11.590202,PNPA059 | Phsar Toch | Phsar Toch | 0979994030 | PNP | Phnom Penh Branch | Phnom Penh Branch
PNPA060,Phsar Thmei Ti Muoy,Phsar Thmei Ti Muoy,0713537070,PNP,Phnom Penh Branch,Phnom Penh Branch,Authorized Dealer/ Authorized Agent,In effect,11.570329,104.921707,PNPA060 | Phsar Thmei Ti Muoy | Phsar Thmei Ti Muoy | 0713537070 | PNP | Phnom Penh Branch | Phnom Penh Branch
PNPA064,Prey Pring Khang Tboung 2,Prey Pring Khang Tboung 2,0976639839,PNP,Phnom Penh Branch,Phnom Penh Branch,Authorized Dealer/ Authorized Agent,In effect,11.524598,104.826706,PNPA064 | Prey Pring Khang Tboung 2 | Prey Pring Khang Tboung 2 | 0976639839 | PNP | Phnom Penh Branch | Phnom Penh Branch
PNPA069,Ou Baek K am,Ou Baek K am,068389888,PNP,Phnom Penh Branch,Phnom Penh Branch,Authorized Dealer/ Authorized Agent,In effect,11.5524,104.8851,PNPA069 | Ou Baek K am | Ou Baek K am | 068389888 | PNP | Phnom Penh Branch | Phnom Penh Branch
PNPA070,Nirouth,Nirouth,068362286,PNP,Phnom Penh Branch,Phnom Penh Branch,Authorized Dealer/ Authorized Agent,In effect,11.519818,104.945927,PNPA070 | Nirouth | Nirouth | 068362286 | PNP | Phnom Penh Branch | Phnom Penh Branch
PNPA071,Chong Khsach,Chong Khsach,015604030,PNP,Phnom Penh Branch,Phnom Penh Branch,Authorized Dealer/ Authorized Agent,In effect,104.915295,11.588579,PNPA071 | Chong Khsach | Chong Khsach | 015604030 | PNP | Phnom Penh Branch | Phnom Penh Branch
PNPA072,Phsar Toch,Phsar Toch,089966655,PNP,Phnom Penh Branch,Phnom Penh Branch,Authorized Dealer/ Authorized Agent,In effect,104.907171,11.590341,PNPA072 | Phsar Toch | Phsar Toch | 089966655 | PNP | Phnom Penh Branch | Phnom Penh Branch
PNPA073,Phsar Depou Ti Pir Phum 2,Phsar Depou Ti Pir Phum 2,060243536,PNP,Phnom Penh Branch,Phnom Penh Branch,Authorized Dealer/ Authorized Agent,In effect,11.566332,104.905016,PNPA073 | Phsar Depou Ti Pir Phum 2 | Phsar Depou Ti Pir Phum 2 | 060243536 | PNP | Phnom Penh Branch | Phnom Penh Branch
PNPA074,Tuek Thla,Tuek Thla,066366789,PNP,Phnom Penh Branch,Phnom Penh Branch,Authorized Dealer/ Authorized Agent,In effect,11.5576,104.8686,PNPA074 | Tuek Thla | Tuek Thla | 066366789 | PNP | Phnom Penh Branch | Phnom Penh Branch
PNPA079,Kab Phluk,Kab Phluk,0975203928,PNP,Phnom Penh Branch,Phnom Penh Branch,Authorized Dealer/ Authorized Agent,In effect,11.502116,104.806126,PNPA079 | Kab Phluk | Kab Phluk | 0975203928 | PNP | Phnom Penh Branch | Phnom Penh Branch
PNPA080,Phleung Chheh Roteh,Phleung Chheh Roteh,,PNP,Phnom Penh Branch,Phnom Penh Branch,Authorized Dealer/ Authorized Agent,In effect,11.491788,104.81429,PNPA080 | Phleung Chheh Roteh | Phleung Chheh Roteh | PNP | Phnom Penh Branch | Phnom Penh Branch
PNPA081,Phsar Thmei Ti Bei Phum 3,Phsar Thmei Ti Bei Phum 3,0979700868,PNP,Phnom Penh Branch,Phnom Penh Branch,Authorized Dealer/ Authorized Agent,In effect,11.565271,104.923624,PNPA081 | Phsar Thmei Ti Bei Phum 3 | Phsar Thmei Ti Bei Phum 3 | 0979700868 | PNP | Phnom Penh Branch | Phnom Penh Branch
PNPA087,Boeng Tumpun Ti Muoy,Boeng Tumpun Ti Muoy,060673337,PNP,Phnom Penh Branch,Phnom Penh Branch,Authorized Dealer/ Authorized Agent,In effect,11.530862,104.912548,PNPA087 | Boeng Tumpun Ti Muoy | Boeng Tumpun Ti Muoy | 060673337 | PNP | Phnom Penh Branch | Phnom Penh Branch
PNPA088,Chaom Chau Ti Bei 02,Chaom Chau Ti Bei 02,066778278,PNP,Phnom Penh Branch,Phnom Penh Branch,Authorized Dealer/ Authorized Agent,In effect,11.537322,104.815671,PNPA088 | Chaom Chau Ti Bei 02 | Chaom Chau Ti Bei 02 | 066778278 | PNP | Phnom Penh Branch | Phnom Penh Branch
PNPA091,Chaom Chau 2 Phum 1,Chaom Chau 2 Phum 1,0882597401,PNP,Phnom Penh Branch,Phnom Penh Branch,Authorized Dealer/ Authorized Agent,In effect,11.52026,104.806014,PNPA091 | Chaom Chau 2 Phum 1 | Chaom Chau 2 Phum 1 | 0882597401 | PNP | Phnom Penh Branch | Phnom Penh Branch
PNPA095,Wat Nirouth,Wat Nirouth,0316888165,PNP,Phnom Penh Branch,Phnom Penh Branch,Authorized Dealer/ Authorized Agent,In effect,11.522177,104.9465878,PNPA095 | Wat Nirouth | Wat Nirouth | 0316888165 | PNP | Phnom Penh Branch | Phnom Penh Branch
PNPA096,Tuek L ak Ti Bei Phum 2,Tuek L ak Ti Bei Phum 2,0973366376,PNP,Phnom Penh Branch,Phnom Penh Branch,Authorized Dealer/ Authorized Agent,In effect,11.566,104.89096,PNPA096 | Tuek L ak Ti Bei Phum 2 | Tuek L ak Ti Bei Phum 2 | 0973366376 | PNP | Phnom Penh Branch | Phnom Penh Branch
PNPA100,Tuol Pongro,Tuol Pongro,0889202999,PNP,Phnom Penh Branch,Phnom Penh Branch,Authorized Dealer/ Authorized Agent,In effect,11.513179,104.858848,PNPA100 | Tuol Pongro | Tuol Pongro | 0889202999 | PNP | Phnom Penh Branch | Phnom Penh Branch
PNPP001,Chamkar Mon,Chamkar Mon,0886479090,PNP,Phnom Penh Branch,Phnom Penh Branch,Post office,In effect,11.5498322,104.9003168,PNPP001 | Chamkar Mon | Chamkar Mon | 0886479090 | PNP | Phnom Penh Branch | Phnom Penh Branch
PNPP002,Mean Chey 01,Mean Chey 01,0713951242,PNP,Phnom Penh Branch,Phnom Penh Branch,Post office,In effect,11.5121,104.93619,PNPP002 | Mean Chey 01 | Mean Chey 01 | 0713951242 | PNP | Phnom Penh Branch | Phnom Penh Branch
PNPP003,Mean Chey 02,Mean Chey 02,0315500998,PNP,Phnom Penh Branch,Phnom Penh Branch,Post office,In effect,11.547075,104.884,PNPP003 | Mean Chey 02 | Mean Chey 02 | 0315500998 | PNP | Phnom Penh Branch | Phnom Penh Branch
PNPP004,Preaek Pnov,Preaek Pnov,0717674227,PNP,Phnom Penh Branch,Phnom Penh Branch,Post office,In effect,11.6583,104.8637,PNPP004 | Preaek Pnov | Preaek Pnov | 0717674227 | PNP | Phnom Penh Branch | Phnom Penh Branch
PNPP005,Chbar Ampov,Chbar Ampov,0975582123,PNP,Phnom Penh Branch,Phnom Penh Branch,Post office,In effect,11.5317,104.9369,PNPP005 | Chbar Ampov | Chbar Ampov | 0975582123 | PNP | Phnom Penh Branch | Phnom Penh Branch
PNPP006,Tuol Kouk,Tuol Kouk,0976243981,PNP,Phnom Penh Branch,Phnom Penh Branch,Post office,In effect,11.5903,104.8974,PNPP006 | Tuol Kouk | Tuol Kouk | 0976243981 | PNP | Phnom Penh Branch | Phnom Penh Branch
PNPP007,Boeng Keng Kang,Boeng Keng Kang,0977681433,PNP,Phnom Penh Branch,Phnom Penh Branch,Post office,In effect,11.55514,104.915931,PNPP007 | Boeng Keng Kang | Boeng Keng Kang | 0977681433 | PNP | Phnom Penh Branch | Phnom Penh Branch
PNPP008,Pou Saen Chey 01,Pou Saen Chey 01,0977872172,PNP,Phnom Penh Branch,Phnom Penh Branch,Post office,In effect,11.561082,104.853001,PNPP008 | Pou Saen Chey 01 | Pou Saen Chey 01 | 0977872172 | PNP | Phnom Penh Branch | Phnom Penh Branch
PNPP009,Pou Saen Chey 02,Pou Saen Chey 02,0712265139,PNP,Phnom Penh Branch,Phnom Penh Branch,Post office,In effect,11.5302,104.8521,PNPP009 | Pou Saen Chey 02 | Pou Saen Chey 02 | 0712265139 | PNP | Phnom Penh Branch | Phnom Penh Branch
PNPP010,Chraoy Chongvar,Chraoy Chongvar,068288779,PNP,Phnom Penh Branch,Phnom Penh Branch,Post office,In effect,11.6407,104.918,PNPP010 | Chraoy Chongvar | Chraoy Chongvar | 068288779 | PNP | Phnom Penh Branch | Phnom Penh Branch
PNPP011,Dangkao,Dangkao,0883331768,PNP,Phnom Penh Branch,Phnom Penh Branch,Post office,In effect,11.50786,104.8915,PNPP011 | Dangkao | Dangkao | 0883331768 | PNP | Phnom Penh Branch | Phnom Penh Branch
PNPP012,Kamboul,Kamboul,,PNP,Phnom Penh Branch,Phnom Penh Branch,Post office,In effect,11.518005,104.774501,PNPP012 | Kamboul | Kamboul | PNP | Phnom Penh Branch | Phnom Penh Branch
PNPP013,Saen Sokh,Saen Sokh,0889432820,PNP,Phnom Penh Branch,Phnom Penh Branch,Post office,In effect,11.590052,104.876093,PNPP013 | Saen Sokh | Saen Sokh | 0889432820 | PNP | Phnom Penh Branch | Phnom Penh Branch
PNPP014,Doun Penh,Doun Penh,0888985557,PNP,Phnom Penh Branch,Phnom Penh Branch,Post office,In effect,11.56927,104.91889,PNPP014 | Doun Penh | Doun Penh | 0888985557 | PNP | Phnom Penh Branch | Phnom Penh Branch
PNPS001,Phsar Thmei Ti Muoy,Phsar Thmei Ti Muoy,,PNP,Phnom Penh Branch,Phnom Penh Branch,Post office,In effect,11.566858,104.920799,PNPS001 | Phsar Thmei Ti Muoy | Phsar Thmei Ti Muoy | PNP | Phnom Penh Branch | Phnom Penh Branch
PNPS002,Boeng Kak Ti Pir,Boeng Kak Ti Pir,,PNP,Phnom Penh Branch,Phnom Penh Branch,Post office,In effect,11.573333,104.897194,PNPS002 | Boeng Kak Ti Pir | Boeng Kak Ti Pir | PNP | Phnom Penh Branch | Phnom Penh Branch
PNPS003,Nirouth,Nirouth,,PNP,Phnom Penh Branch,Phnom Penh Branch,Post office,In effect,11.531241,104.941846,PNPS003 | Nirouth | Nirouth | PNP | Phnom Penh Branch | Phnom Penh Branch
PNPS004,Tuek Thla,Tuek Thla,,PNP,Phnom Penh Branch,Phnom Penh Branch,Post office,In effect,11.562672,104.877815,PNPS004 | Tuek Thla | Tuek Thla | PNP | Phnom Penh Branch | Phnom Penh Branch
PNPS005,Chaom Chau Ti Muoy 01,Chaom Chau Ti Muoy 01,,PNP,Phnom Penh Branch,Phnom Penh Branch,Post office,In effect,11.532352,104.832526,PNPS005 | Chaom Chau Ti Muoy 01 | Chaom Chau Ti Muoy 01 | PNP | Phnom Penh Branch | Phnom Penh Branch
PNPS006,Srah Chak,Srah Chak,,PNP,Phnom Penh Branch,Phnom Penh Branch,Post office,In effect,11.585659,104.915881,PNPS006 | Srah Chak | Srah Chak | PNP | Phnom Penh Branch | Phnom Penh Branch
PNPS007,Tuol Svay Prey Ti Pir,Tuol Svay Prey Ti Pir,,PNP,Phnom Penh Branch,Phnom Penh Branch,Post office,In effect,11.550046,104.904741,PNPS007 | Tuol Svay Prey Ti Pir | Tuol Svay Prey Ti Pir | PNP | Phnom Penh Branch | Phnom Penh Branch
PNPS008,Chaom Chau Ti Muoy 02,Chaom Chau Ti Muoy 02,,PNP,Phnom Penh Branch,Phnom Penh Branch,Post office,In effect,11.532598,104.870151,PNPS008 | Chaom Chau Ti Muoy 02 | Chaom Chau Ti Muoy 02 | PNP | Phnom Penh Branch | Phnom Penh Branch
TEST,MAPBCCS,MAPBCCS,0314930000,PNP,Phnom Penh Branch,Phnom Penh Branch,Authorized Dealer/ Authorized Agent,Out of effect,11.55094,104.93591,TEST | MAPBCCS | MAPBCCS | 0314930000 | PNP | Phnom Penh Branch | Phnom Penh Branch
PREA001,Prey Pnov 01,Prey Pnov 01,0888814399,PRE,Prey Veng,Prey Veng,Authorized Dealer/ Authorized Agent,In effect,11.611617,105.367041,PREA001 | Prey Pnov 01 | Prey Pnov 01 | 0888814399 | PRE | Prey Veng | Prey Veng
PREA002,Prey Kanlaong,Prey Kanlaong,0888864046,PRE,Prey Veng,Prey Veng,Authorized Dealer/ Authorized Agent,In effect,11.548952,105.321298,PREA002 | Prey Kanlaong | Prey Kanlaong | 0888864046 | PRE | Prey Veng | Prey Veng
PREA003,Svay Antor 01,Svay Antor 01,0888881669,PRE,Prey Veng,Prey Veng,Authorized Dealer/ Authorized Agent,In effect,11.571646,105.420105,PREA003 | Svay Antor 01 | Svay Antor 01 | 0888881669 | PRE | Prey Veng | Prey Veng
PREA004,Svay Antor 02,Svay Antor 02,0977610036,PRE,Prey Veng,Prey Veng,Authorized Dealer/ Authorized Agent,In effect,11.59789,105.420474,PREA004 | Svay Antor 02 | Svay Antor 02 | 0977610036 | PRE | Prey Veng | Prey Veng
PREA005,Preaek Ta Sar,Preaek Ta Sar,0718880188,PRE,Prey Veng,Prey Veng,Authorized Dealer/ Authorized Agent,In effect,11.5544,105.127824,PREA005 | Preaek Ta Sar | Preaek Ta Sar | 0718880188 | PRE | Prey Veng | Prey Veng
PREA006,Prey Daeum Thnoeng,Prey Daeum Thnoeng,0975161696,PRE,Prey Veng,Prey Veng,Authorized Dealer/ Authorized Agent,In effect,11.775516,105.369815,PREA006 | Prey Daeum Thnoeng | Prey Daeum Thnoeng | 0975161696 | PRE | Prey Veng | Prey Veng
PREA007,Roka,Roka,0887923737,PRE,Prey Veng,Prey Veng,Authorized Dealer/ Authorized Agent,In effect,11.664424,105.225004,PREA007 | Roka | Roka | 0887923737 | PRE | Prey Veng | Prey Veng
PREA008,Prey Pnov 02,Prey Pnov 02,068663933,PRE,Prey Veng,Prey Veng,Authorized Dealer/ Authorized Agent,In effect,11.648247,105.34067,PREA008 | Prey Pnov 02 | Prey Pnov 02 | 068663933 | PRE | Prey Veng | Prey Veng
PREA009,Smaong Khang Cheung,Smaong Khang Cheung,0717764777,PRE,Prey Veng,Prey Veng,Authorized Dealer/ Authorized Agent,In effect,11.553368,105.600953,PREA009 | Smaong Khang Cheung | Smaong Khang Cheung | 0717764777 | PRE | Prey Veng | Prey Veng
PREA010,Tnaot,Tnaot,0716638822,PRE,Prey Veng,Prey Veng,Authorized Dealer/ Authorized Agent,In effect,11.743958,105.530275,PREA010 | Tnaot | Tnaot | 0716638822 | PRE | Prey Veng | Prey Veng
PREA011,Kranhung,Kranhung,0979227625,PRE,Prey Veng,Prey Veng,Authorized Dealer/ Authorized Agent,In effect,11.575922,105.662392,PREA011 | Kranhung | Kranhung | 0979227625 | PRE | Prey Veng | Prey Veng
PREA012,Chres 01,Chres 01,0713644302,PRE,Prey Veng,Prey Veng,Authorized Dealer/ Authorized Agent,In effect,11.342191,105.622593,PREA012 | Chres 01 | Chres 01 | 0713644302 | PRE | Prey Veng | Prey Veng
PREA013,Prasat,Prasat,0314262232,PRE,Prey Veng,Prey Veng,Authorized Dealer/ Authorized Agent,In effect,11.147729,105.541211,PREA013 | Prasat | Prasat | 0314262232 | PRE | Prey Veng | Prey Veng
PREA014,Angkor Sar,Angkor Sar,0887732183,PRE,Prey Veng,Prey Veng,Authorized Dealer/ Authorized Agent,In effect,11.268447,105.667765,PREA014 | Angkor Sar | Angkor Sar | 0887732183 | PRE | Prey Veng | Prey Veng
PREA015,Banteay Chakrei 01,Banteay Chakrei 01,090348958,PRE,Prey Veng,Prey Veng,Authorized Dealer/ Authorized Agent,In effect,11.029347,105.378702,PREA015 | Banteay Chakrei 01 | Banteay Chakrei 01 | 090348958 | PRE | Prey Veng | Prey Veng
PREA016,Boeng Preah,Boeng Preah,0716909494,PRE,Prey Veng,Prey Veng,Authorized Dealer/ Authorized Agent,In effect,11.325107,105.440185,PREA016 | Boeng Preah | Boeng Preah | 0716909494 | PRE | Prey Veng | Prey Veng
PREA017,Preaek Khsay Kha,Preaek Khsay Kha,090236222,PRE,Prey Veng,Prey Veng,Authorized Dealer/ Authorized Agent,In effect,11.263423,105.284942,PREA017 | Preaek Khsay Kha | Preaek Khsay Kha | 090236222 | PRE | Prey Veng | Prey Veng
PREA018,Prey Totueng,Prey Totueng,0978381594,PRE,Prey Veng,Prey Veng,Authorized Dealer/ Authorized Agent,In effect,11.39061,105.609572,PREA018 | Prey Totueng | Prey Totueng | 0978381594 | PRE | Prey Veng | Prey Veng
PREA019,Kampong Trabaek,Kampong Trabaek,0978993411,PRE,Prey Veng,Prey Veng,Authorized Dealer/ Authorized Agent,In effect,11.142464,105.482792,PREA019 | Kampong Trabaek | Kampong Trabaek | 0978993411 | PRE | Prey Veng | Prey Veng
PREA020,Angkor Reach,Angkor Reach,0978931026,PRE,Prey Veng,Prey Veng,Authorized Dealer/ Authorized Agent,In effect,11.095309,105.384188,PREA020 | Angkor Reach | Angkor Reach | 0978931026 | PRE | Prey Veng | Prey Veng
PREA021,Banteay Chakrei 02,Banteay Chakrei 02,0714884338,PRE,Prey Veng,Prey Veng,Authorized Dealer/ Authorized Agent,In effect,10.966321,105.42245,PREA021 | Banteay Chakrei 02 | Banteay Chakrei 02 | 0714884338 | PRE | Prey Veng | Prey Veng
PREA022,Chres 02,Chres 02,0979060115,PRE,Prey Veng,Prey Veng,Authorized Dealer/ Authorized Agent,In effect,11.352907,105.646832,PREA022 | Chres 02 | Chres 02 | 0979060115 | PRE | Prey Veng | Prey Veng
PREA023,Peam Ro,Peam Ro,0314440002,PRE,Prey Veng,Prey Veng,Authorized Dealer/ Authorized Agent,In effect,11.32042,105.283219,PREA023 | Peam Ro | Peam Ro | 0314440002 | PRE | Prey Veng | Prey Veng
PREA024,Chheu Kach,Chheu Kach,0315555262,PRE,Prey Veng,Prey Veng,Authorized Dealer/ Authorized Agent,In effect,11.256568,105.400833,PREA024 | Chheu Kach | Chheu Kach | 0315555262 | PRE | Prey Veng | Prey Veng
PREA025,Peam Muntear,Peam Muntear,0712220180,PRE,Prey Veng,Prey Veng,Authorized Dealer/ Authorized Agent,In effect,11.008778,105.464324,PREA025 | Peam Muntear | Peam Muntear | 0712220180 | PRE | Prey Veng | Prey Veng
PREA026,Prey Tueng,Prey Tueng,0314874949,PRE,Prey Veng,Prey Veng,Authorized Dealer/ Authorized Agent,In effect,11.739997,105.372161,PREA026 | Prey Tueng | Prey Tueng | 0314874949 | PRE | Prey Veng | Prey Veng
PREA027,CHHEANG SEANGKHIN,CHHEANG SEANGKHIN,090772299,PRE,Prey Veng,Prey Veng,Authorized Dealer/ Authorized Agent,In effect,11.31939,105.399572,PREA027 | CHHEANG SEANGKHIN | CHHEANG SEANGKHIN | 090772299 | PRE | Prey Veng | Prey Veng
PREA028,Sao Raksmey,Sao Raksmey,0972706439,PRE,Prey Veng,Prey Veng,Authorized Dealer/ Authorized Agent,In effect,11.84313,105.370159,PREA028 | Sao Raksmey | Sao Raksmey | 0972706439 | PRE | Prey Veng | Prey Veng
PREA029,Kampong Soeng,Kampong Soeng,0884653111,PRE,Prey Veng,Prey Veng,Authorized Dealer/ Authorized Agent,In effect,11.215623,105.347501,PREA029 | Kampong Soeng | Kampong Soeng | 0884653111 | PRE | Prey Veng | Prey Veng
PREA030,Me Sang,Me Sang,0317000006,PRE,Prey Veng,Prey Veng,Authorized Dealer/ Authorized Agent,In effect,11.327182,105.541394,PREA030 | Me Sang | Me Sang | 0317000006 | PRE | Prey Veng | Prey Veng
PREA031,Kampong Trabaek,Kampong Trabaek,0889916636,PRE,Prey Veng,Prey Veng,Authorized Dealer/ Authorized Agent,In effect,11.197135,105.515982,PREA031 | Kampong Trabaek | Kampong Trabaek | 0889916636 | PRE | Prey Veng | Prey Veng
PREA032,Peam Ro,Peam Ro,0884311255,PRE,Prey Veng,Prey Veng,Authorized Dealer/ Authorized Agent,In effect,11.343899,105.305749,PREA032 | Peam Ro | Peam Ro | 0884311255 | PRE | Prey Veng | Prey Veng
PREA033,Svay Antor,Svay Antor,0716334505,PRE,Prey Veng,Prey Veng,Authorized Dealer/ Authorized Agent,In effect,11.462464,105.498355,PREA033 | Svay Antor | Svay Antor | 0716334505 | PRE | Prey Veng | Prey Veng
PREA034,Kamchay Mear,Kamchay Mear,0712897000,PRE,Prey Veng,Prey Veng,Authorized Dealer/ Authorized Agent,In effect,11.62477,105.761708,PREA034 | Kamchay Mear | Kamchay Mear | 0712897000 | PRE | Prey Veng | Prey Veng
PREP001,Prey Veng,Prey Veng,0712930022,PRE,Prey Veng,Prey Veng,Post office,In effect,11.4895,105.329192,PREP001 | Prey Veng | Prey Veng | 0712930022 | PRE | Prey Veng | Prey Veng
PRES001,Kampong Leav,Kampong Leav,0973330402,PRE,Prey Veng,Prey Veng,Post office,In effect,11.486712,105.326166,PRES001 | Kampong Leav | Kampong Leav | 0973330402 | PRE | Prey Veng | Prey Veng
PRES002,Preaek Khsay Kha,Preaek Khsay Kha,0889401311,PRE,Prey Veng,Prey Veng,Post office,In effect,11.261454,105.289131,PRES002 | Preaek Khsay Kha | Preaek Khsay Kha | 0889401311 | PRE | Prey Veng | Prey Veng
PRES003,Chheu Kach,Chheu Kach,,PRE,Prey Veng,Prey Veng,Post office,In effect,11.256791,105.400789,PRES003 | Chheu Kach | Chheu Kach | PRE | Prey Veng | Prey Veng
PRES004,Chheu Kach,Chheu Kach,068406208,PRE,Prey Veng,Prey Veng,Post office,In effect,11.256732,105.400851,PRES004 | Chheu Kach | Chheu Kach | 068406208 | PRE | Prey Veng | Prey Veng
PRES005,Roka,Roka,0973856137,PRE,Prey Veng,Prey Veng,Post office,In effect,11.663987,105.221573,PRES005 | Roka | Roka | 0973856137 | PRE | Prey Veng | Prey Veng
PRHA001,Pal Hal,Pal Hal,0972269860,PRH,Preah Vihear,Preah Vihear,Authorized Dealer/ Authorized Agent,In effect,13.737871,104.978647,PRHA001 | Pal Hal | Pal Hal | 0972269860 | PRH | Preah Vihear | Preah Vihear
PRHA002,Toek Kraham,Toek Kraham,0974833461,PRH,Preah Vihear,Preah Vihear,Authorized Dealer/ Authorized Agent,In effect,14.148894,105.082134,PRHA002 | Toek Kraham | Toek Kraham | 0974833461 | PRH | Preah Vihear | Preah Vihear
PRHA003,Rumdaoh Srae,Rumdaoh Srae,066286770,PRH,Preah Vihear,Preah Vihear,Authorized Dealer/ Authorized Agent,In effect,14.171889,104.787173,PRHA003 | Rumdaoh Srae | Rumdaoh Srae | 066286770 | PRH | Preah Vihear | Preah Vihear
PRHA004,Kantuot,Kantuot,0889903333,PRH,Preah Vihear,Preah Vihear,Authorized Dealer/ Authorized Agent,In effect,14.238194,104.728915,PRHA004 | Kantuot | Kantuot | 0889903333 | PRH | Preah Vihear | Preah Vihear
PRHA005,Kuleaen Tboung,Kuleaen Tboung,0313309030,PRH,Preah Vihear,Preah Vihear,Authorized Dealer/ Authorized Agent,In effect,13.818537,104.702415,PRHA005 | Kuleaen Tboung | Kuleaen Tboung | 0313309030 | PRH | Preah Vihear | Preah Vihear
PRHA006,Choam Khsan,Choam Khsan,0316692222,PRH,Preah Vihear,Preah Vihear,Authorized Dealer/ Authorized Agent,In effect,14.220675,104.943625,PRHA006 | Choam Khsan | Choam Khsan | 0316692222 | PRH | Preah Vihear | Preah Vihear
PRHA007,Kampong Sralau Pir,Kampong Sralau Pir,0977477105,PRH,Preah Vihear,Preah Vihear,Authorized Dealer/ Authorized Agent,In effect,13.975337,105.848255,PRHA007 | Kampong Sralau Pir | Kampong Sralau Pir | 0977477105 | PRH | Preah Vihear | Preah Vihear
PRHA008,Chamraeun,Chamraeun,0979999660,PRH,Preah Vihear,Preah Vihear,Authorized Dealer/ Authorized Agent,In effect,13.579335,104.896452,PRHA008 | Chamraeun | Chamraeun | 0979999660 | PRH | Preah Vihear | Preah Vihear
PRHA009,S'ang,S'ang,0887799550,PRH,Preah Vihear,Preah Vihear,Authorized Dealer/ Authorized Agent,In effect,13.653966,105.260717,PRHA009 | S'ang | S'ang | 0887799550 | PRH | Preah Vihear | Preah Vihear
PRHA010,Preah Khleang,Preah Khleang,0883220036,PRH,Preah Vihear,Preah Vihear,Authorized Dealer/ Authorized Agent,In effect,13.620566,105.030259,PRHA010 | Preah Khleang | Preah Khleang | 0883220036 | PRH | Preah Vihear | Preah Vihear
PRHA011,Robieb,Robieb,0972123227,PRH,Preah Vihear,Preah Vihear,Authorized Dealer/ Authorized Agent,In effect,13.357681,105.114889,PRHA011 | Robieb | Robieb | 0972123227 | PRH | Preah Vihear | Preah Vihear
PRHA012,Chhaeb Muoy,Chhaeb Muoy,0977268488,PRH,Preah Vihear,Preah Vihear,Authorized Dealer/ Authorized Agent,In effect,13.768454,105.408876,PRHA012 | Chhaeb Muoy | Chhaeb Muoy | 0977268488 | PRH | Preah Vihear | Preah Vihear
PRHA013,Rummeakney,Rummeakney,0312353506,PRH,Preah Vihear,Preah Vihear,Authorized Dealer/ Authorized Agent,In effect,13.304101,105.002355,PRHA013 | Rummeakney | Rummeakney | 0312353506 | PRH | Preah Vihear | Preah Vihear
PRHA015,Phnum Tbaeng Pir,Phnum Tbaeng Pir,0975434842,PRH,Preah Vihear,Preah Vihear,Authorized Dealer/ Authorized Agent,In effect,13.716508,104.77564,PRHA015 | Phnum Tbaeng Pir | Phnum Tbaeng Pir | 0975434842 | PRH | Preah Vihear | Preah Vihear
PRHA016,Srayang,Srayang,0882224111,PRH,Preah Vihear,Preah Vihear,Authorized Dealer/ Authorized Agent,In effect,13.705809,104.545423,PRHA016 | Srayang | Srayang | 0882224111 | PRH | Preah Vihear | Preah Vihear
PRHP001,Preah Vihear,Preah Vihear,0974477281,PRH,Preah Vihear,Preah Vihear,Post office,In effect,13.794295,104.97836,PRHP001 | Preah Vihear | Preah Vihear | 0974477281 | PRH | Preah Vihear | Preah Vihear
PRHS001,Kampong Pranak,Kampong Pranak,0977778830,PRH,Preah Vihear,Preah Vihear,Post office,In effect,13.805255,104.97862,PRHS001 | Kampong Pranak | Kampong Pranak | 0977778830 | PRH | Preah Vihear | Preah Vihear
PURA001,Kandieng,Kandieng,0975599822,PUR,Pursat,Pursat,Authorized Dealer/ Authorized Agent,In effect,12.584246,103.956298,PURA001 | Kandieng | Kandieng | 0975599822 | PUR | Pursat | Pursat
PURA002,Srae Sdok,Srae Sdok,060382388,PUR,Pursat,Pursat,Authorized Dealer/ Authorized Agent,In effect,12.662178,103.94826,PURA002 | Srae Sdok | Srae Sdok | 060382388 | PUR | Pursat | Pursat
PURA003,Chheu Tom,Chheu Tom,0712510096,PUR,Pursat,Pursat,Authorized Dealer/ Authorized Agent,In effect,12.296662,104.174028,PURA003 | Chheu Tom | Chheu Tom | 0712510096 | PUR | Pursat | Pursat
PURA004,Phteah Rung,Phteah Rung,0883656115,PUR,Pursat,Pursat,Authorized Dealer/ Authorized Agent,In effect,12.423372,103.729909,PURA004 | Phteah Rung | Phteah Rung | 0883656115 | PUR | Pursat | Pursat
PURA005,Sna Ansa,Sna Ansa,0977934754,PUR,Pursat,Pursat,Authorized Dealer/ Authorized Agent,In effect,12.53697,104.145334,PURA005 | Sna Ansa | Sna Ansa | 0977934754 | PUR | Pursat | Pursat
PURA006,Leach,Leach,0973333773,PUR,Pursat,Pursat,Authorized Dealer/ Authorized Agent,In effect,12.351028,103.768345,PURA006 | Leach | Leach | 0973333773 | PUR | Pursat | Pursat
PURA007,Ta Lou 01,Ta Lou 01,0715421918,PUR,Pursat,Pursat,Authorized Dealer/ Authorized Agent,In effect,12.4878,103.5941,PURA007 | Ta Lou 01 | Ta Lou 01 | 0715421918 | PUR | Pursat | Pursat
PURA008,Anlung Tnaot,Anlung Tnaot,0974178777,PUR,Pursat,Pursat,Authorized Dealer/ Authorized Agent,In effect,12.533559,104.204472,PURA008 | Anlung Tnaot | Anlung Tnaot | 0974178777 | PUR | Pursat | Pursat
PURA009,Me Tuek,Me Tuek,067300991,PUR,Pursat,Pursat,Authorized Dealer/ Authorized Agent,In effect,12.69584,103.740165,PURA009 | Me Tuek | Me Tuek | 067300991 | PUR | Pursat | Pursat
PURA010,Pramaoy 01,Pramaoy 01,0889002282,PUR,Pursat,Pursat,Authorized Dealer/ Authorized Agent,In effect,12.306994,103.095853,PURA010 | Pramaoy 01 | Pramaoy 01 | 0889002282 | PUR | Pursat | Pursat
PURA011,Pramaoy 02,Pramaoy 02,0884370168,PUR,Pursat,Pursat,Authorized Dealer/ Authorized Agent,In effect,12.355181,103.469557,PURA011 | Pramaoy 02 | Pramaoy 02 | 0884370168 | PUR | Pursat | Pursat
PURA012,Ou Ta Paong,Ou Ta Paong,0977395398,PUR,Pursat,Pursat,Authorized Dealer/ Authorized Agent,In effect,12.660656,103.670925,PURA012 | Ou Ta Paong | Ou Ta Paong | 0977395398 | PUR | Pursat | Pursat
PURA013,Ou Saom,Ou Saom,0889469666,PUR,Pursat,Pursat,Authorized Dealer/ Authorized Agent,In effect,12.080807,103.205989,PURA013 | Ou Saom | Ou Saom | 0889469666 | PUR | Pursat | Pursat
PURA014,Snam Preah,Snam Preah,0976632663,PUR,Pursat,Pursat,Authorized Dealer/ Authorized Agent,In effect,12.626963,103.836676,PURA014 | Snam Preah | Snam Preah | 0976632663 | PUR | Pursat | Pursat
PURA015,Ou Sandan,Ou Sandan,0977990073,PUR,Pursat,Pursat,Authorized Dealer/ Authorized Agent,In effect,12.557407,104.114851,PURA015 | Ou Sandan | Ou Sandan | 0977990073 | PUR | Pursat | Pursat
PURA016,Ta Lou 02,Ta Lou 02,0966719553,PUR,Pursat,Pursat,Authorized Dealer/ Authorized Agent,In effect,12.4892,103.6503,PURA016 | Ta Lou 02 | Ta Lou 02 | 0966719553 | PUR | Pursat | Pursat
PURA017,Boeng Khnar,Boeng Khnar,0713222192,PUR,Pursat,Pursat,Authorized Dealer/ Authorized Agent,In effect,12.632193,103.734616,PURA017 | Boeng Khnar | Boeng Khnar | 0713222192 | PUR | Pursat | Pursat
PURA018,Trapeang Chong,Trapeang Chong,0976877444,PUR,Pursat,Pursat,Authorized Dealer/ Authorized Agent,In effect,12.580989,103.737537,PURA018 | Trapeang Chong | Trapeang Chong | 0976877444 | PUR | Pursat | Pursat
PURP001,Pousat,Pousat,0977738488,PUR,Pursat,Pursat,Post office,In effect,12.53454,103.91531,PURP001 | Pousat | Pousat | 0977738488 | PUR | Pursat | Pursat
PURS001,Phteah Prey,Phteah Prey,,PUR,Pursat,Pursat,Post office,In effect,12.537229,103.920705,PURS001 | Phteah Prey | Phteah Prey | PUR | Pursat | Pursat
PURS002,Boeng Khnar,Boeng Khnar,,PUR,Pursat,Pursat,Post office,In effect,12.635697,103.72688,PURS002 | Boeng Khnar | Boeng Khnar | PUR | Pursat | Pursat
ROTA001,Trapeang Chres,Trapeang Chres,0974707171,ROT,Ratanak Kiri,Ratanak Kiri,Authorized Dealer/ Authorized Agent,In effect,13.57925,106.772128,ROTA001 | Trapeang Chres | Trapeang Chres | 0974707171 | ROT | Ratanak Kiri | Ratanak Kiri
ROTA002,Labansiek,Labansiek,0975578077,ROT,Ratanak Kiri,Ratanak Kiri,Authorized Dealer/ Authorized Agent,In effect,13.739982,106.991325,ROTA002 | Labansiek | Labansiek | 0975578077 | ROT | Ratanak Kiri | Ratanak Kiri
ROTA003,Ta Veaeng Leu,Ta Veaeng Leu,0717272436,ROT,Ratanak Kiri,Ratanak Kiri,Authorized Dealer/ Authorized Agent,In effect,14.045859,107.107888,ROTA003 | Ta Veaeng Leu | Ta Veaeng Leu | 0717272436 | ROT | Ratanak Kiri | Ratanak Kiri
ROTA004,Veun Sai,Veun Sai,0974970505,ROT,Ratanak Kiri,Ratanak Kiri,Authorized Dealer/ Authorized Agent,In effect,13.971663,106.813054,ROTA004 | Veun Sai | Veun Sai | 0974970505 | ROT | Ratanak Kiri | Ratanak Kiri
ROTA005,Lum Choar,Lum Choar,0979818199,ROT,Ratanak Kiri,Ratanak Kiri,Authorized Dealer/ Authorized Agent,In effect,13.670254,107.349959,ROTA005 | Lum Choar | Lum Choar | 0979818199 | ROT | Ratanak Kiri | Ratanak Kiri
ROTA006,Chey Otdam 01,Chey Otdam 01,0977740002,ROT,Ratanak Kiri,Ratanak Kiri,Authorized Dealer/ Authorized Agent,In effect,13.486692,106.981576,ROTA006 | Chey Otdam 01 | Chey Otdam 01 | 0977740002 | ROT | Ratanak Kiri | Ratanak Kiri
ROTA007,Malik,Malik,0974538161,ROT,Ratanak Kiri,Ratanak Kiri,Authorized Dealer/ Authorized Agent,In effect,13.865468,107.305068,ROTA007 | Malik | Malik | 0974538161 | ROT | Ratanak Kiri | Ratanak Kiri
ROTA008,Kachanh 01,Kachanh 01,0978252640,ROT,Ratanak Kiri,Ratanak Kiri,Authorized Dealer/ Authorized Agent,In effect,13.719616,106.956511,ROTA008 | Kachanh 01 | Kachanh 01 | 0978252640 | ROT | Ratanak Kiri | Ratanak Kiri
ROTA009,Kachanh 02,Kachanh 02,0888989883,ROT,Ratanak Kiri,Ratanak Kiri,Authorized Dealer/ Authorized Agent,In effect,13.717359,106.977399,ROTA009 | Kachanh 02 | Kachanh 02 | 0888989883 | ROT | Ratanak Kiri | Ratanak Kiri
ROTA010,Teun,Teun,0885949079,ROT,Ratanak Kiri,Ratanak Kiri,Authorized Dealer/ Authorized Agent,In effect,13.683354,106.88182,ROTA010 | Teun | Teun | 0885949079 | ROT | Ratanak Kiri | Ratanak Kiri
